{"index":{}}
{"name":"西町店","address":"北海道札幌市西区西町北２－１－６","latitude":43.0773043276,"longitude":141.292534094,"geo_location":[141.292534094,43.0773043276]}
{"index":{}}
{"name":"白石南郷通店","address":"北海道札幌市白石区南郷通２丁目南１０－１５","latitude":43.0446331934,"longitude":141.400104165,"geo_location":[141.400104165,43.0446331934]}
{"index":{}}
{"name":"オーロラタウン店","address":"北海道札幌市中央区大通西１丁目地下街オーロラタウン","latitude":43.0610230865,"longitude":141.355693117,"geo_location":[141.355693117,43.0610230865]}
{"index":{}}
{"name":"北５西２０店","address":"北海道札幌市中央区北五条西２０丁目１－１","latitude":43.0635881741,"longitude":141.325312165,"geo_location":[141.325312165,43.0635881741]}
{"index":{}}
{"name":"平岸店","address":"北海道札幌市豊平区平岸二条１０丁目３－１２","latitude":43.0306221912,"longitude":141.36821602,"geo_location":[141.36821602,43.0306221912]}
{"index":{}}
{"name":"南新川店","address":"北海道札幌市北区北二十三条西１４丁目６－１","latitude":43.0876822741,"longitude":141.327977125,"geo_location":[141.327977125,43.0876822741]}
{"index":{}}
{"name":"帯広柏林台店","address":"北海道帯広市西１８条南３－２７－３６","latitude":42.918490884,"longitude":143.159894664,"geo_location":[143.159894664,42.918490884]}
{"index":{}}
{"name":"札幌南二条店","address":"北海道札幌市中央区南二条西２丁目１","latitude":43.0580542823,"longitude":141.35573607,"geo_location":[141.35573607,43.0580542823]}
{"index":{}}
{"name":"イオン釧路店","address":"北海道釧路郡釧路町桂木１－１－１","latitude":43.0091587556,"longitude":144.405824423,"geo_location":[144.405824423,43.0091587556]}
{"index":{}}
{"name":"福住イトーヨーカドー店","address":"北海道札幌市豊平区福住二条１丁目","latitude":43.0201501787,"longitude":141.403793918,"geo_location":[141.403793918,43.0201501787]}
{"index":{}}
{"name":"イオン千歳店","address":"北海道千歳市栄町６－５１","latitude":42.828842212,"longitude":141.64850902,"geo_location":[141.64850902,42.828842212]}
{"index":{}}
{"name":"イオン室蘭店","address":"北海道室蘭市東町２－４－３２","latitude":42.344713503,"longitude":141.02612207,"geo_location":[141.02612207,42.344713503]}
{"index":{}}
{"name":"札幌すすきの店","address":"北海道札幌市中央区南四条西４丁目１６","latitude":43.0558891779,"longitude":141.352973957,"geo_location":[141.352973957,43.0558891779]}
{"index":{}}
{"name":"手稲西友店","address":"北海道札幌市手稲区前田一条１１丁目","latitude":43.1204291948,"longitude":141.244872015,"geo_location":[141.244872015,43.1204291948]}
{"index":{}}
{"name":"苫小牧パセオ店","address":"北海道苫小牧市川沿町６－１６－６","latitude":42.6228701753,"longitude":141.528208795,"geo_location":[141.528208795,42.6228701753]}
{"index":{}}
{"name":"星が浦ぴあざフクハラ店","address":"北海道釧路市星が浦大通２－６","latitude":43.0142938606,"longitude":144.323045346,"geo_location":[144.323045346,43.0142938606]}
{"index":{}}
{"name":"釧路春日フクハラ店","address":"北海道釧路市春日町６－１","latitude":42.9967258375,"longitude":144.375138237,"geo_location":[144.375138237,42.9967258375]}
{"index":{}}
{"name":"苫小牧ステイ店","address":"北海道苫小牧市三光町５－６","latitude":42.6544963732,"longitude":141.614424834,"geo_location":[141.614424834,42.6544963732]}
{"index":{}}
{"name":"上磯トライアル店","address":"北海道北斗市七重浜７－１４－１","latitude":41.8210174309,"longitude":140.697212882,"geo_location":[140.697212882,41.8210174309]}
{"index":{}}
{"name":"花川ビッグハウス店","address":"北海道石狩市樽川六条１丁目５","latitude":43.1488042166,"longitude":141.283430047,"geo_location":[141.283430047,43.1488042166]}
{"index":{}}
{"name":"札幌新発寒店","address":"北海道札幌市手稲区新発寒五条５丁目","latitude":43.1148012846,"longitude":141.270972989,"geo_location":[141.270972989,43.1148012846]}
{"index":{}}
{"name":"２４１音更店","address":"北海道河東郡音更町木野大通西１７－１－４","latitude":42.970782031,"longitude":143.207205711,"geo_location":[143.207205711,42.970782031]}
{"index":{}}
{"name":"北４９条店","address":"北海道札幌市東区北四十九条東８丁目３－１７","latitude":43.1215901205,"longitude":141.354409005,"geo_location":[141.354409005,43.1215901205]}
{"index":{}}
{"name":"旭川ツインハープ店","address":"北海道旭川市旭神町三条５丁目１－１２","latitude":43.7335830808,"longitude":142.390773963,"geo_location":[142.390773963,43.7335830808]}
{"index":{}}
{"name":"イオン江別店","address":"北海道江別市幸町３５","latitude":43.0972911478,"longitude":141.533433909,"geo_location":[141.533433909,43.0972911478]}
{"index":{}}
{"name":"西岡出光ＳＳ店","address":"北海道札幌市豊平区西岡一条２丁目","latitude":43.0214713084,"longitude":141.383714029,"geo_location":[141.383714029,43.0214713084]}
{"index":{}}
{"name":"函館鍛治店","address":"北海道函館市鍛治２－３９","latitude":41.8110736019,"longitude":140.767314803,"geo_location":[140.767314803,41.8110736019]}
{"index":{}}
{"name":"神楽生協店","address":"北海道旭川市神楽四条５丁目","latitude":43.7604739168,"longitude":142.348103957,"geo_location":[142.348103957,43.7604739168]}
{"index":{}}
{"name":"湯川生協店","address":"北海道函館市湯川町１－３４－１５","latitude":41.781416521,"longitude":140.781997898,"geo_location":[140.781997898,41.781416521]}
{"index":{}}
{"name":"西岡生協店","address":"北海道札幌市南区澄川六条４丁目２－１","latitude":43.0118971572,"longitude":141.374043002,"geo_location":[141.374043002,43.0118971572]}
{"index":{}}
{"name":"札幌平岡店","address":"北海道札幌市厚別区上野幌三条２丁目１－７","latitude":43.0122171752,"longitude":141.469521099,"geo_location":[141.469521099,43.0122171752]}
{"index":{}}
{"name":"帯広イトーヨーカドー店","address":"北海道帯広市稲田町南８線西１０－１","latitude":42.8903350305,"longitude":143.198641545,"geo_location":[143.198641545,42.8903350305]}
{"index":{}}
{"name":"白石ルーシー店","address":"北海道札幌市白石区栄通１８丁目５－３５","latitude":43.0280821494,"longitude":141.434168128,"geo_location":[141.434168128,43.0280821494]}
{"index":{}}
{"name":"イオン小樽店","address":"北海道小樽市築港１１－６","latitude":43.1846083189,"longitude":141.02233716,"geo_location":[141.02233716,43.1846083189]}
{"index":{}}
{"name":"宮の沢ターミナルビル店","address":"北海道札幌市西区宮の沢１条１－１７－１４","latitude":43.0891312438,"longitude":141.27613601,"geo_location":[141.27613601,43.0891312438]}
{"index":{}}
{"name":"３８号富良野店","address":"北海道富良野市新富町２－５","latitude":43.3447750305,"longitude":142.381144884,"geo_location":[142.381144884,43.3447750305]}
{"index":{}}
{"name":"札幌アピア店","address":"北海道札幌市中央区北五条西３丁目","latitude":43.0676352072,"longitude":141.351680032,"geo_location":[141.351680032,43.0676352072]}
{"index":{}}
{"name":"札幌月寒ゼビオ店","address":"北海道札幌市豊平区月寒東三条１１丁目１－１０","latitude":43.0275722098,"longitude":141.408563027,"geo_location":[141.408563027,43.0275722098]}
{"index":{}}
{"name":"３６号里塚店","address":"北海道札幌市清田区里塚二条７丁目１－５","latitude":42.9782690782,"longitude":141.469567873,"geo_location":[141.469567873,42.9782690782]}
{"index":{}}
{"name":"屯田イトーヨーカドー店","address":"北海道札幌市北区屯田八条３丁目５－１","latitude":43.1400821345,"longitude":141.340378071,"geo_location":[141.340378071,43.1400821345]}
{"index":{}}
{"name":"札幌インター店","address":"北海道札幌市白石区菊水元町七条１丁目１０－２２","latitude":43.0733080738,"longitude":141.409652098,"geo_location":[141.409652098,43.0733080738]}
{"index":{}}
{"name":"あいの里生協店","address":"北海道札幌市北区あいの里一条５丁目２","latitude":43.1573252808,"longitude":141.398954923,"geo_location":[141.398954923,43.1573252808]}
{"index":{}}
{"name":"札幌ヨドバシカメラ店","address":"北海道札幌市北区北六条西５丁目１－２２","latitude":43.0683791385,"longitude":141.347233177,"geo_location":[141.347233177,43.0683791385]}
{"index":{}}
{"name":"３９号北見店","address":"北海道北見市西富町１－１－６","latitude":43.7990157924,"longitude":143.869887509,"geo_location":[143.869887509,43.7990157924]}
{"index":{}}
{"name":"イオン北見店","address":"北海道北見市北進町１－１－１","latitude":43.8077707804,"longitude":143.875990536,"geo_location":[143.875990536,43.8077707804]}
{"index":{}}
{"name":"３６号千歳店","address":"北海道千歳市錦町３－１０－１","latitude":42.8231552292,"longitude":141.643249846,"geo_location":[141.643249846,42.8231552292]}
{"index":{}}
{"name":"イオンモール札幌平岡店","address":"北海道札幌市清田区平岡三条５丁目３－１","latitude":42.9960481854,"longitude":141.457307929,"geo_location":[141.457307929,42.9960481854]}
{"index":{}}
{"name":"厚別西友店","address":"北海道札幌市厚別区厚別西四条６丁目７００－１２６","latitude":43.0540162372,"longitude":141.468748079,"geo_location":[141.468748079,43.0540162372]}
{"index":{}}
{"name":"イオン釧路フードコート店","address":"北海道釧路郡釧路町桂木１－１－１","latitude":43.0085507177,"longitude":144.404248214,"geo_location":[144.404248214,43.0085507177]}
{"index":{}}
{"name":"イオン札幌麻生店","address":"北海道札幌市北区北三十九条西４丁目１－５","latitude":43.106953071,"longitude":141.339149087,"geo_location":[141.339149087,43.106953071]}
{"index":{}}
{"name":"３８号札内店","address":"北海道中川郡幕別町札内共栄町１６４－１","latitude":42.9186439709,"longitude":143.243152695,"geo_location":[143.243152695,42.9186439709]}
{"index":{}}
{"name":"網走店","address":"北海道網走市駒場南８－１－１８","latitude":43.9978075451,"longitude":144.286353563,"geo_location":[144.286353563,43.9978075451]}
{"index":{}}
{"name":"函館イトーヨーカドー店","address":"北海道函館市美原１－３－１","latitude":41.813765492,"longitude":140.758198819,"geo_location":[140.758198819,41.813765492]}
{"index":{}}
{"name":"イオン札幌元町店","address":"北海道札幌市東区北三十一条東１５丁目１","latitude":43.1015571785,"longitude":141.368320044,"geo_location":[141.368320044,43.1015571785]}
{"index":{}}
{"name":"１２号岩見沢店","address":"北海道岩見沢市八条東１０丁目２－５５","latitude":43.203416116,"longitude":141.781227005,"geo_location":[141.781227005,43.203416116]}
{"index":{}}
{"name":"イオン札幌桑園店","address":"北海道札幌市中央区北八条西１４丁目２８","latitude":43.0696712774,"longitude":141.332441969,"geo_location":[141.332441969,43.0696712774]}
{"index":{}}
{"name":"イオンモール札幌苗穂店","address":"北海道札幌市東区東苗穂二条３丁目１－１イオンモール札幌苗穂２Ｆフードコート","latitude":43.0793502316,"longitude":141.404656916,"geo_location":[141.404656916,43.0793502316]}
{"index":{}}
{"name":"イオンモール旭川西店","address":"北海道旭川市緑町２３丁目２１６１－３","latitude":43.7932150179,"longitude":142.326188044,"geo_location":[142.326188044,43.7932150179]}
{"index":{}}
{"name":"中標津東武店","address":"北海道標津郡中標津町南町３－１０東武サウスヒルズ１Ｆ","latitude":43.5354856141,"longitude":144.976864319,"geo_location":[144.976864319,43.5354856141]}
{"index":{}}
{"name":"札幌アリオ店","address":"北海道札幌市東区北七条東９丁目２－２０","latitude":43.0717080881,"longitude":141.370050028,"geo_location":[141.370050028,43.0717080881]}
{"index":{}}
{"name":"３６号恵庭店","address":"北海道恵庭市黄金南６－１０－２","latitude":42.8920942398,"longitude":141.596643863,"geo_location":[141.596643863,42.8920942398]}
{"index":{}}
{"name":"旭川宮前通店","address":"北海道旭川市宮前１条４丁目１－２１","latitude":43.7579509602,"longitude":142.374796927,"geo_location":[142.374796927,43.7579509602]}
{"index":{}}
{"name":"イオンモール札幌発寒店","address":"北海道札幌市西区発寒八条１２丁目１－１","latitude":43.0963523365,"longitude":141.27696994,"geo_location":[141.27696994,43.0963523365]}
{"index":{}}
{"name":"登別若草町店","address":"北海道登別市若草町４－１２－１","latitude":42.3705193861,"longitude":141.055852008,"geo_location":[141.055852008,42.3705193861]}
{"index":{}}
{"name":"３８号釧路店","address":"北海道釧路市鳥取大通３－１２－２６","latitude":43.0132237827,"longitude":144.356926288,"geo_location":[144.356926288,43.0132237827]}
{"index":{}}
{"name":"イオンモール苫小牧店","address":"北海道苫小牧市柳町３－１－２０","latitude":42.6567931281,"longitude":141.642741822,"geo_location":[141.642741822,42.6567931281]}
{"index":{}}
{"name":"３７号伊達店","address":"北海道伊達市舟岡町２３６－１","latitude":42.4687304493,"longitude":140.87830988,"geo_location":[140.87830988,42.4687304493]}
{"index":{}}
{"name":"１２号滝川店","address":"北海道滝川市南滝の川１３２－１","latitude":43.5692599511,"longitude":141.932925984,"geo_location":[141.932925984,43.5692599511]}
{"index":{}}
{"name":"イオン名寄店","address":"北海道名寄市徳田８０－１イオン名寄ショッピングセンター２Ｆ","latitude":44.3383687937,"longitude":142.452545069,"geo_location":[142.452545069,44.3383687937]}
{"index":{}}
{"name":"環状通伏古店","address":"北海道札幌市東区伏古一条５丁目１－１０","latitude":43.080273299,"longitude":141.391431973,"geo_location":[141.391431973,43.080273299]}
{"index":{}}
{"name":"釧路貝塚通り店","address":"北海道釧路市武佐３丁目４７番２０号","latitude":42.9894618848,"longitude":144.419983331,"geo_location":[144.419983331,42.9894618848]}
{"index":{}}
{"name":"１２号新札幌店","address":"北海道札幌市厚別区厚別中央二条４丁目４－１２","latitude":43.0381000715,"longitude":141.467383894,"geo_location":[141.467383894,43.0381000715]}
{"index":{}}
{"name":"上江別高台ショッピングセンター店","address":"北海道江別市上江別４２７－３","latitude":43.099867171,"longitude":141.548792054,"geo_location":[141.548792054,43.099867171]}
{"index":{}}
{"name":"岩見沢大和タウンプラザ店","address":"北海道岩見沢市やまと一条９丁目１番３号","latitude":43.1882542332,"longitude":141.735642983,"geo_location":[141.735642983,43.1882542332]}
{"index":{}}
{"name":"４０号稚内店","address":"北海道稚内市潮見３ー５－１７","latitude":45.3953938184,"longitude":141.702775538,"geo_location":[141.702775538,45.3953938184]}
{"index":{}}
{"name":"５号線函館昭和店","address":"北海道函館市昭和二丁目４６－３","latitude":41.8153834763,"longitude":140.7355458,"geo_location":[140.7355458,41.8153834763]}
{"index":{}}
{"name":"厚別通り川下店","address":"北海道札幌市白石区川下五条４－２－１","latitude":43.0530120666,"longitude":141.447875071,"geo_location":[141.447875071,43.0530120666]}
{"index":{}}
{"name":"２３５静内店","address":"北海道日高郡新ひだか町静内末広町２－１－１","latitude":42.3423371681,"longitude":142.356164559,"geo_location":[142.356164559,42.3423371681]}
{"index":{}}
{"name":"２７５東雁来店","address":"北海道札幌市東区東雁来九条４丁目７－１","latitude":43.0939673259,"longitude":141.429670101,"geo_location":[141.429670101,43.0939673259]}
{"index":{}}
{"name":"２３０藤野店","address":"北海道札幌市南区藤野三条４丁目１－１","latitude":42.9608472197,"longitude":141.304746938,"geo_location":[141.304746938,42.9608472197]}
{"index":{}}
{"name":"帯広西５条店","address":"北海道帯広市西五条南十八丁目１１－１","latitude":42.9111180798,"longitude":143.19845359,"geo_location":[143.19845359,42.9111180798]}
{"index":{}}
{"name":"３６号苫小牧店","address":"北海道苫小牧市新開町３－１－１","latitude":42.6617303256,"longitude":141.651788753,"geo_location":[141.651788753,42.6617303256]}
{"index":{}}
{"name":"新琴似店","address":"北海道札幌市北区新琴似２条７－１－１","latitude":43.1081911139,"longitude":141.317809046,"geo_location":[141.317809046,43.1081911139]}
{"index":{}}
{"name":"３９号旭川永山店","address":"北海道旭川市永山２条８－１－２７","latitude":43.7973629673,"longitude":142.411870957,"geo_location":[142.411870957,43.7973629673]}
{"index":{}}
{"name":"手稲星置店","address":"北海道札幌市手稲区星置３条１－１－３０","latitude":43.1380801346,"longitude":141.220285173,"geo_location":[141.220285173,43.1380801346]}
{"index":{}}
{"name":"函館松風店","address":"北海道函館市松風町１１－１５","latitude":41.7717305933,"longitude":140.732886817,"geo_location":[140.732886817,41.7717305933]}
{"index":{}}
{"name":"羊ヶ丘通清田店","address":"北海道札幌市清田区真栄４７－１","latitude":42.9927862891,"longitude":141.438112956,"geo_location":[141.438112956,42.9927862891]}
{"index":{}}
{"name":"新さっぽろカテプリ店","address":"北海道札幌市厚別区厚別中央二条５－７","latitude":43.0371292626,"longitude":141.473027876,"geo_location":[141.473027876,43.0371292626]}
{"index":{}}
{"name":"札幌日生ビルチカホ店","address":"北海道札幌市中央区北三条西４丁目１－１日本生命札幌ビルＢ","latitude":43.0650802041,"longitude":141.350571956,"geo_location":[141.350571956,43.0650802041]}
{"index":{}}
{"name":"弘前堅田店","address":"青森県弘前市大字宮川１－２－４","latitude":40.6118397658,"longitude":140.482586681,"geo_location":[140.482586681,40.6118397658]}
{"index":{}}
{"name":"青森東バイパス店","address":"青森県青森市はまなす２－１－２８","latitude":40.826813729,"longitude":140.795178561,"geo_location":[140.795178561,40.826813729]}
{"index":{}}
{"name":"４号線十和田店","address":"青森県十和田市大字洞内字井戸頭１４４－１３３","latitude":40.6441037586,"longitude":141.199462597,"geo_location":[141.199462597,40.6441037586]}
{"index":{}}
{"name":"１０２弘前店","address":"青森県弘前市大字高田５－２－８","latitude":40.5964826331,"longitude":140.507655782,"geo_location":[140.507655782,40.5964826331]}
{"index":{}}
{"name":"青森西バイパス店","address":"青森県青森市三好２－２－１","latitude":40.8304277612,"longitude":140.70538868,"geo_location":[140.70538868,40.8304277612]}
{"index":{}}
{"name":"イオンモール下田店","address":"青森県上北郡おいらせ町中野平４０－１","latitude":40.6027367845,"longitude":141.416425453,"geo_location":[141.416425453,40.6027367845]}
{"index":{}}
{"name":"八戸ピアドゥ店","address":"青森県八戸市沼館４－７－１１２ＳＣピアドゥ内","latitude":40.5275476484,"longitude":141.497440322,"geo_location":[141.497440322,40.5275476484]}
{"index":{}}
{"name":"青森中央サンワ店","address":"青森県青森市青葉３－５－６","latitude":40.8043226761,"longitude":140.755114755,"geo_location":[140.755114755,40.8043226761]}
{"index":{}}
{"name":"三沢店","address":"青森県三沢市栄町２－３１－１４４","latitude":40.6740425955,"longitude":141.365851416,"geo_location":[141.365851416,40.6740425955]}
{"index":{}}
{"name":"青森イトーヨーカドー店","address":"青森県青森市浜田１－１４－１","latitude":40.8004676808,"longitude":140.749364645,"geo_location":[140.749364645,40.8004676808]}
{"index":{}}
{"name":"弘前さくら野店","address":"青森県弘前市城東北３－１０－１","latitude":40.6067496795,"longitude":140.496373761,"geo_location":[140.496373761,40.6067496795]}
{"index":{}}
{"name":"むつ中央店","address":"青森県むつ市中央２－２９","latitude":41.2878855565,"longitude":141.184945652,"geo_location":[141.184945652,41.2878855565]}
{"index":{}}
{"name":"イオンモールつがる柏店","address":"青森県つがる市柏稲盛幾世４１","latitude":40.8011238476,"longitude":140.417701761,"geo_location":[140.417701761,40.8011238476]}
{"index":{}}
{"name":"十和田イオンスーパーセンター店","address":"青森県十和田市大字相坂字六日町山１６６－１","latitude":40.6036275838,"longitude":141.257688446,"geo_location":[141.257688446,40.6036275838]}
{"index":{}}
{"name":"青森サンロード店","address":"青森県青森市緑３－９－２","latitude":40.8079185734,"longitude":140.753053639,"geo_location":[140.753053639,40.8079185734]}
{"index":{}}
{"name":"八戸南類家店","address":"青森県八戸市南類家１－２－６","latitude":40.5042187508,"longitude":141.506698524,"geo_location":[141.506698524,40.5042187508]}
{"index":{}}
{"name":"１０２黒石店","address":"青森県黒石市大字中川字篠村３７－１","latitude":40.6320297302,"longitude":140.596841724,"geo_location":[140.596841724,40.6320297302]}
{"index":{}}
{"name":"４５４八戸西店","address":"青森県八戸市大字長苗代字二日市１３－１","latitude":40.5110816678,"longitude":141.447947546,"geo_location":[141.447947546,40.5110816678]}
{"index":{}}
{"name":"五所川原中央店","address":"青森県五所川原市中央３－２０８","latitude":40.7953416321,"longitude":140.449987759,"geo_location":[140.449987759,40.7953416321]}
{"index":{}}
{"name":"八戸城下店","address":"青森県八戸市城下４－７－１５","latitude":40.5201836128,"longitude":141.491517353,"geo_location":[141.491517353,40.5201836128]}
{"index":{}}
{"name":"弘前大町店","address":"青森県弘前市大字大町１－１７－７","latitude":40.5946157448,"longitude":140.483915796,"geo_location":[140.483915796,40.5946157448]}
{"index":{}}
{"name":"八戸ラピア店","address":"青森県八戸市江陽２－１４－１ラピア３Ｆ","latitude":40.522315678300004,"longitude":141.503509507,"geo_location":[141.503509507,40.522315678300004]}
{"index":{}}
{"name":"４号線盛岡南店","address":"岩手県盛岡市津志田南１－１－２５","latitude":39.6587568904,"longitude":141.161471417,"geo_location":[141.161471417,39.6587568904]}
{"index":{}}
{"name":"２９８花巻店","address":"岩手県花巻市上小舟渡４１－１","latitude":39.3980559905,"longitude":141.12296322,"geo_location":[141.12296322,39.3980559905]}
{"index":{}}
{"name":"４号線一関店","address":"岩手県一関市山目字大槻７０－１","latitude":38.9368779985,"longitude":141.118574194,"geo_location":[141.118574194,38.9368779985]}
{"index":{}}
{"name":"４号線水沢店","address":"岩手県奥州市水沢佐倉河字前田８０－１","latitude":39.1462859326,"longitude":141.149976154,"geo_location":[141.149976154,39.1462859326]}
{"index":{}}
{"name":"イオン前沢店","address":"岩手県奥州市前沢区向田２－２２","latitude":39.0499618755,"longitude":141.131186158,"geo_location":[141.131186158,39.0499618755]}
{"index":{}}
{"name":"矢巾マックスバリュー店","address":"岩手県紫波郡矢巾町南矢幅７－４１３","latitude":39.611473827,"longitude":141.152369338,"geo_location":[141.152369338,39.611473827]}
{"index":{}}
{"name":"４号線盛岡上田店","address":"岩手県盛岡市上田４－１７－２０","latitude":39.7227107819,"longitude":141.134285287,"geo_location":[141.134285287,39.7227107819]}
{"index":{}}
{"name":"盛岡フェザン店","address":"岩手県盛岡市盛岡駅前通１－４４盛岡駅ビルフェザン本館Ｂ１Ｆグルメタウン内","latitude":39.7025687545,"longitude":141.136004215,"geo_location":[141.136004215,39.7025687545]}
{"index":{}}
{"name":"盛岡青山店","address":"岩手県盛岡市青山４－４６－１５","latitude":39.7333239467,"longitude":141.114871461,"geo_location":[141.114871461,39.7333239467]}
{"index":{}}
{"name":"イオンモール盛岡店","address":"岩手県盛岡市前潟４－７－１イオン盛岡２Ｆ","latitude":39.7111349704,"longitude":141.099335349,"geo_location":[141.099335349,39.7111349704]}
{"index":{}}
{"name":"イオンモール盛岡南店","address":"岩手県盛岡市本宮７－１－１","latitude":39.6835457481,"longitude":141.128111433,"geo_location":[141.128111433,39.6835457481]}
{"index":{}}
{"name":"１０６宮古店","address":"岩手県宮古市宮町１－１－３８","latitude":39.6388407392,"longitude":141.946136136,"geo_location":[141.946136136,39.6388407392]}
{"index":{}}
{"name":"１０７北上店","address":"岩手県北上市北鬼柳１８地割１９－２","latitude":39.2936428351,"longitude":141.101643357,"geo_location":[141.101643357,39.2936428351]}
{"index":{}}
{"name":"盛岡西バイパス本宮店","address":"岩手県盛岡市本宮４－４４－１５","latitude":39.6854808438,"longitude":141.129597315,"geo_location":[141.129597315,39.6854808438]}
{"index":{}}
{"name":"仙台青葉通り店","address":"宮城県仙台市青葉区一番町２－５－１","latitude":38.2594431741,"longitude":140.872251146,"geo_location":[140.872251146,38.2594431741]}
{"index":{}}
{"name":"仙台黒松店","address":"宮城県仙台市泉区八乙女中央１－１－１","latitude":38.3096081663,"longitude":140.880317253,"geo_location":[140.880317253,38.3096081663]}
{"index":{}}
{"name":"仙台中央通り店","address":"宮城県仙台市青葉区中央２－２－２９","latitude":38.2612872736,"longitude":140.877247015,"geo_location":[140.877247015,38.2612872736]}
{"index":{}}
{"name":"４号線名取店","address":"宮城県名取市飯野坂土城掘８２－１","latitude":38.1562011003,"longitude":140.887566047,"geo_location":[140.887566047,38.1562011003]}
{"index":{}}
{"name":"市名坂店","address":"宮城県仙台市泉区市名坂字東裏９７－１","latitude":38.319454252,"longitude":140.889883181,"geo_location":[140.889883181,38.319454252]}
{"index":{}}
{"name":"泉中山店","address":"宮城県仙台市泉区南中山１－４２－５","latitude":38.2970750156,"longitude":140.827468262,"geo_location":[140.827468262,38.2970750156]}
{"index":{}}
{"name":"４号線白石店","address":"宮城県白石市八幡町４６９","latitude":37.9972753501,"longitude":140.612488083,"geo_location":[140.612488083,37.9972753501]}
{"index":{}}
{"name":"４５号石巻店","address":"宮城県石巻市門脇一番谷地４６－１","latitude":38.4308589949,"longitude":141.262060093,"geo_location":[141.262060093,38.4308589949]}
{"index":{}}
{"name":"大河原店","address":"宮城県柴田郡大河原町字新東２７－１４","latitude":38.0614412844,"longitude":140.737509008,"geo_location":[140.737509008,38.0614412844]}
{"index":{}}
{"name":"中田ヤマザワ店","address":"宮城県仙台市太白区中田町字千刈田１９－１","latitude":38.1967650481,"longitude":140.897754099,"geo_location":[140.897754099,38.1967650481]}
{"index":{}}
{"name":"イオン仙台中山店","address":"宮城県仙台市泉区南中山１－３５－４０イオン仙台中山店３Ｆ","latitude":38.2976780104,"longitude":140.827776263,"geo_location":[140.827776263,38.2976780104]}
{"index":{}}
{"name":"ザ・モール仙台長町店","address":"宮城県仙台市太白区長町７－２０－３","latitude":38.2260132718,"longitude":140.876495125,"geo_location":[140.876495125,38.2260132718]}
{"index":{}}
{"name":"イオン古川店","address":"宮城県大崎市古川旭２－２－１","latitude":38.5667269433,"longitude":140.972751186,"geo_location":[140.972751186,38.5667269433]}
{"index":{}}
{"name":"４号線古川店","address":"宮城県大崎市古川城西１－１１－２５","latitude":38.5750379859,"longitude":140.946574177,"geo_location":[140.946574177,38.5750379859]}
{"index":{}}
{"name":"仙台駅東口店","address":"宮城県仙台市宮城野区榴岡２－１－２５","latitude":38.2607980722,"longitude":140.883630096,"geo_location":[140.883630096,38.2607980722]}
{"index":{}}
{"name":"利府街道店","address":"宮城県宮城郡利府町利府字新並松６４－１","latitude":38.3311551972,"longitude":140.977807226,"geo_location":[140.977807226,38.3311551972]}
{"index":{}}
{"name":"ザ・ビッグ柴田店","address":"宮城県柴田郡柴田町中名生字佐野３４－１","latitude":38.0624481106,"longitude":140.794898159,"geo_location":[140.794898159,38.0624481106]}
{"index":{}}
{"name":"亘理コープ店","address":"宮城県亘理郡亘理町逢隈高屋字柴北１００","latitude":38.0425752938,"longitude":140.87723196,"geo_location":[140.87723196,38.0425752938]}
{"index":{}}
{"name":"イオンモール利府店","address":"宮城県宮城郡利府町利府字新屋田前２２","latitude":38.3261592396,"longitude":140.972821228,"geo_location":[140.972821228,38.3261592396]}
{"index":{}}
{"name":"４号線仙台松森店","address":"宮城県仙台市泉区松森字関場３２－１","latitude":38.3046442073,"longitude":140.915270011,"geo_location":[140.915270011,38.3046442073]}
{"index":{}}
{"name":"仙台一番町四丁目店","address":"宮城県仙台市青葉区一番町４－４－３３－２Ｆ","latitude":38.263910113,"longitude":140.870715236,"geo_location":[140.870715236,38.263910113]}
{"index":{}}
{"name":"大和吉岡ヨークベニマル店","address":"宮城県黒川郡大和町吉岡東１－２－１","latitude":38.4366391095,"longitude":140.89279211,"geo_location":[140.89279211,38.4366391095]}
{"index":{}}
{"name":"仙台大野田店","address":"宮城県仙台市太白区大野田２－７－２９","latitude":38.2135372548,"longitude":140.877929197,"geo_location":[140.877929197,38.2135372548]}
{"index":{}}
{"name":"４５号塩釜店","address":"宮城県塩竈市杉の入３－１－１","latitude":38.3315322015,"longitude":141.038103095,"geo_location":[141.038103095,38.3315322015]}
{"index":{}}
{"name":"岩沼西ヨークベニマル店","address":"宮城県岩沼市たけくま２－３－６７","latitude":38.1077321883,"longitude":140.856880966,"geo_location":[140.856880966,38.1077321883]}
{"index":{}}
{"name":"南吉成ヨークベニマル店","address":"宮城県仙台市青葉区南吉成３－１－２１","latitude":38.2866111803,"longitude":140.816398048,"geo_location":[140.816398048,38.2866111803]}
{"index":{}}
{"name":"イオンモール富谷店","address":"宮城県富谷市大清水１－３３－１","latitude":38.3640719986,"longitude":140.875349282,"geo_location":[140.875349282,38.3640719986]}
{"index":{}}
{"name":"山田鈎取ヨークタウン店","address":"宮城県仙台市太白区山田字田中前１８０","latitude":38.2163621164,"longitude":140.836757078,"geo_location":[140.836757078,38.2163621164]}
{"index":{}}
{"name":"新田東ヨークタウン店","address":"宮城県仙台市宮城野区新田東３－１－５","latitude":38.2762792333,"longitude":140.937016129,"geo_location":[140.937016129,38.2762792333]}
{"index":{}}
{"name":"市名坂ヨークタウン店","address":"宮城県仙台市泉区市名坂字中道１００－９","latitude":38.3154359951,"longitude":140.905095107,"geo_location":[140.905095107,38.3154359951]}
{"index":{}}
{"name":"佐沼店","address":"宮城県登米市迫町佐沼字萩洗２－１２－１３","latitude":38.6856780844,"longitude":141.186351064,"geo_location":[141.186351064,38.6856780844]}
{"index":{}}
{"name":"イオンモール名取店","address":"宮城県名取市杜せきのした５丁目３番地の１","latitude":38.1641440471,"longitude":140.896222148,"geo_location":[140.896222148,38.1641440471]}
{"index":{}}
{"name":"イオンモール石巻店","address":"宮城県石巻市茜平４－１０４","latitude":38.4478821312,"longitude":141.265558975,"geo_location":[141.265558975,38.4478821312]}
{"index":{}}
{"name":"仙台六丁の目店","address":"宮城県仙台市若林区六丁の目元町１６－１","latitude":38.2504871097,"longitude":140.933477094,"geo_location":[140.933477094,38.2504871097]}
{"index":{}}
{"name":"仙台長町店","address":"宮城県仙台市太白区あすと長町４－２－１","latitude":38.2258291805,"longitude":140.887861093,"geo_location":[140.887861093,38.2258291805]}
{"index":{}}
{"name":"石巻蛇田店","address":"宮城県石巻市恵み野１－２－８","latitude":38.4467360671,"longitude":141.272053191,"geo_location":[141.272053191,38.4467360671]}
{"index":{}}
{"name":"４号線岩沼店","address":"宮城県名取市堀内字北竹８５－５","latitude":38.1223201733,"longitude":140.874105184,"geo_location":[140.874105184,38.1223201733]}
{"index":{}}
{"name":"明石台店","address":"宮城県富谷市明石台６－１－３６","latitude":38.3479482424,"longitude":140.892064148,"geo_location":[140.892064148,38.3479482424]}
{"index":{}}
{"name":"仙台沖野店","address":"宮城県仙台市若林区沖野２－５－８０","latitude":38.2316341022,"longitude":140.908138231,"geo_location":[140.908138231,38.2316341022]}
{"index":{}}
{"name":"多賀城店","address":"宮城県多賀城市町前２－３－１２","latitude":38.2859851088,"longitude":141.005176989,"geo_location":[141.005176989,38.2859851088]}
{"index":{}}
{"name":"４号線古川荒谷店","address":"宮城県大崎市古川荒谷字新芋川３２－１","latitude":38.6031501267,"longitude":140.979013065,"geo_location":[140.979013065,38.6031501267]}
{"index":{}}
{"name":"４８号愛子ヨークタウン店","address":"宮城県仙台市青葉区上愛子字新宮前２０－１","latitude":38.2677511825,"longitude":140.760724044,"geo_location":[140.760724044,38.2677511825]}
{"index":{}}
{"name":"秋田新国道店","address":"秋田県秋田市泉中央２－３－２","latitude":39.7335199526,"longitude":140.100949546,"geo_location":[140.100949546,39.7335199526]}
{"index":{}}
{"name":"秋田仁井田店","address":"秋田県秋田市仁井田緑町５－２０","latitude":39.6885389918,"longitude":140.123756682,"geo_location":[140.123756682,39.6885389918]}
{"index":{}}
{"name":"１０５本荘店","address":"秋田県由利本荘市砂子下６２－６","latitude":39.3865911404,"longitude":140.035500472,"geo_location":[140.035500472,39.3865911404]}
{"index":{}}
{"name":"本荘マックスバリュー店","address":"秋田県由利本荘市東梵天２５７","latitude":39.3869069263,"longitude":140.063589625,"geo_location":[140.063589625,39.3869069263]}
{"index":{}}
{"name":"イオンモール秋田店","address":"秋田県秋田市御所野地蔵田１－１－１","latitude":39.6634980612,"longitude":140.16149261,"geo_location":[140.16149261,39.6634980612]}
{"index":{}}
{"name":"７号線大館店","address":"秋田県大館市片山町２－４－５","latitude":40.2738157805,"longitude":140.53864364,"geo_location":[140.53864364,40.2738157805]}
{"index":{}}
{"name":"１３号横手店","address":"秋田県横手市前郷字上三枚橋３２－１","latitude":39.3086889837,"longitude":140.556844456,"geo_location":[140.556844456,39.3086889837]}
{"index":{}}
{"name":"横手南イオンスーパーセンター店","address":"秋田県横手市婦気大堤字中田４－１","latitude":39.2957778786,"longitude":140.552845443,"geo_location":[140.552845443,39.2957778786]}
{"index":{}}
{"name":"イオン中仙店","address":"秋田県大仙市北長野字袴田１１８","latitude":39.5513759034,"longitude":140.551888461,"geo_location":[140.551888461,39.5513759034]}
{"index":{}}
{"name":"秋田広面店","address":"秋田県秋田市広面堤敷４５－１","latitude":39.7264368849,"longitude":140.147408526,"geo_location":[140.147408526,39.7264368849]}
{"index":{}}
{"name":"茨島マックスバリュ店","address":"秋田県秋田市茨島４－３－１８","latitude":39.6957740452,"longitude":140.098046675,"geo_location":[140.098046675,39.6957740452]}
{"index":{}}
{"name":"グランマート外旭川店","address":"秋田県秋田市外旭川小谷地２５","latitude":39.7517120965,"longitude":140.095800493,"geo_location":[140.095800493,39.7517120965]}
{"index":{}}
{"name":"イオンモール大曲店","address":"秋田県大仙市和合字坪立１７７","latitude":39.4380129635,"longitude":140.509547549,"geo_location":[140.509547549,39.4380129635]}
{"index":{}}
{"name":"７号線能代店","address":"秋田県能代市高塙１１６","latitude":40.1845148078,"longitude":140.051406668,"geo_location":[140.051406668,40.1845148078]}
{"index":{}}
{"name":"７号線秋田飯島店","address":"秋田県秋田市飯島道東３－６－５５","latitude":39.7842529009,"longitude":140.065125509,"geo_location":[140.065125509,39.7842529009]}
{"index":{}}
{"name":"山形やよい町店","address":"山形県山形市やよい１－１－１","latitude":38.2539233392,"longitude":140.309924212,"geo_location":[140.309924212,38.2539233392]}
{"index":{}}
{"name":"米沢店","address":"山形県米沢市金池５－７－１０","latitude":37.9239182164,"longitude":140.11618733,"geo_location":[140.11618733,37.9239182164]}
{"index":{}}
{"name":"１３号天童店","address":"山形県天童市東久野本３－７－５０","latitude":38.373413252,"longitude":140.382867289,"geo_location":[140.382867289,38.373413252]}
{"index":{}}
{"name":"イオン酒田南店","address":"山形県酒田市あきほ町１２０－１","latitude":38.8926240657,"longitude":139.852115422,"geo_location":[139.852115422,38.8926240657]}
{"index":{}}
{"name":"イオン山形北店","address":"山形県山形市馬見ヶ崎２－１２－１９","latitude":38.2832511067,"longitude":140.33117322,"geo_location":[140.33117322,38.2832511067]}
{"index":{}}
{"name":"イオン東根店","address":"山形県東根市さくらんぼ駅前３－７－１５","latitude":38.4273132491,"longitude":140.38779434,"geo_location":[140.38779434,38.4273132491]}
{"index":{}}
{"name":"米沢ヨークベニマル店","address":"山形県米沢市駅前３－１－８８","latitude":37.9124461895,"longitude":140.125272336,"geo_location":[140.125272336,37.9124461895]}
{"index":{}}
{"name":"イオンモール山形南店","address":"山形県山形市若宮３－７－８","latitude":38.2272701876,"longitude":140.305418338,"geo_location":[140.305418338,38.2272701876]}
{"index":{}}
{"name":"イオンモール三川店","address":"山形県東田川郡三川町猪子字和田庫１２８","latitude":38.8155850595,"longitude":139.833961493,"geo_location":[139.833961493,38.8155850595]}
{"index":{}}
{"name":"成沢ヨークベニマル店","address":"山形県山形市成沢西１－６－１７","latitude":38.2093500945,"longitude":140.31690622,"geo_location":[140.31690622,38.2093500945]}
{"index":{}}
{"name":"新庄ヨークベニマル店","address":"山形県新庄市五日町字清水川１３０５－５","latitude":38.7705410123,"longitude":140.308809248,"geo_location":[140.308809248,38.7705410123]}
{"index":{}}
{"name":"鶴岡ＩＺＭＯ店","address":"山形県鶴岡市東新斎町７－７１","latitude":38.7356473003,"longitude":139.818625488,"geo_location":[139.818625488,38.7356473003]}
{"index":{}}
{"name":"２８６山形鉄砲町店","address":"山形県山形市鉄砲町２－２０－３１","latitude":38.2347973276,"longitude":140.332869206,"geo_location":[140.332869206,38.2347973276]}
{"index":{}}
{"name":"酒田こぴあコープ店","address":"山形県酒田市泉町１－１５","latitude":38.9349461531,"longitude":139.845950357,"geo_location":[139.845950357,38.9349461531]}
{"index":{}}
{"name":"寒河江店","address":"山形県寒河江市大字寒河江字赤田７１－１","latitude":38.373479088,"longitude":140.287052327,"geo_location":[140.287052327,38.373479088]}
{"index":{}}
{"name":"１１２鶴岡店","address":"山形県鶴岡市伊勢横内字畑福８４－１","latitude":38.7144922369,"longitude":139.846384304,"geo_location":[139.846384304,38.7144922369]}
{"index":{}}
{"name":"上山ヨークタウン店","address":"山形県上山市仙石字梅ノ木７８０－１","latitude":38.1511371334,"longitude":140.288563321,"geo_location":[140.288563321,38.1511371334]}
{"index":{}}
{"name":"イオンモール天童店","address":"山形県天童市芳賀タウン北４－１－１","latitude":38.3426892906,"longitude":140.362738257,"geo_location":[140.362738257,38.3426892906]}
{"index":{}}
{"name":"郡山並木店","address":"福島県郡山市並木１－５－１９","latitude":37.4085243662,"longitude":140.366020202,"geo_location":[140.366020202,37.4085243662]}
{"index":{}}
{"name":"いわき湯本店","address":"福島県いわき市常磐下船尾町古内２８９－７","latitude":36.9872942412,"longitude":140.869166827,"geo_location":[140.869166827,36.9872942412]}
{"index":{}}
{"name":"１１５方木田店","address":"福島県福島市方木田字水口１－４１","latitude":37.7399083179,"longitude":140.447139991,"geo_location":[140.447139991,37.7399083179]}
{"index":{}}
{"name":"福島駅西口ショッピングセンター店","address":"福島県福島市栄町１－１","latitude":37.7538153821,"longitude":140.458754189,"geo_location":[140.458754189,37.7538153821]}
{"index":{}}
{"name":"会津若松店","address":"福島県会津若松市滝沢町６－２５","latitude":37.5051535175,"longitude":139.941114066,"geo_location":[139.941114066,37.5051535175]}
{"index":{}}
{"name":"いずみコープ店","address":"福島県福島市森合字清水７","latitude":37.7720352966,"longitude":140.441692062,"geo_location":[140.441692062,37.7720352966]}
{"index":{}}
{"name":"イオン福島店","address":"福島県福島市南矢野目字西荒田５０－１７","latitude":37.7880991956,"longitude":140.458172129,"geo_location":[140.458172129,37.7880991956]}
{"index":{}}
{"name":"イオンタウン郡山店","address":"福島県郡山市松木町２－８８","latitude":37.3891844135,"longitude":140.387486156,"geo_location":[140.387486156,37.3891844135]}
{"index":{}}
{"name":"あだたらコープ店","address":"福島県二本松市油井字中田１－１","latitude":37.6042292888,"longitude":140.459984173,"geo_location":[140.459984173,37.6042292888]}
{"index":{}}
{"name":"荒井ヨークベニマル店","address":"福島県郡山市安積町荒井字西原１","latitude":37.3686633917,"longitude":140.356561121,"geo_location":[140.356561121,37.3686633917]}
{"index":{}}
{"name":"会津アピオ店","address":"福島県会津若松市インター西１１６","latitude":37.5202213706,"longitude":139.916501092,"geo_location":[139.916501092,37.5202213706]}
{"index":{}}
{"name":"伊達ヨークベニマル店","address":"福島県伊達市前川原５５","latitude":37.8208281997,"longitude":140.506543119,"geo_location":[140.506543119,37.8208281997]}
{"index":{}}
{"name":"郡山富田カインズホーム店","address":"福島県郡山市富田東４－２０","latitude":37.4230874704,"longitude":140.367872173,"geo_location":[140.367872173,37.4230874704]}
{"index":{}}
{"name":"郡山新さくら通り店","address":"福島県郡山市土瓜１－５７","latitude":37.3994222716,"longitude":140.333613957,"geo_location":[140.333613957,37.3994222716]}
{"index":{}}
{"name":"イオン白河西郷店","address":"福島県西白河郡西郷村大字小田倉字岩下１１－１","latitude":37.1211794831,"longitude":140.177700194,"geo_location":[140.177700194,37.1211794831]}
{"index":{}}
{"name":"ザ・モール郡山店","address":"福島県郡山市長者１－１－５６","latitude":37.3983523174,"longitude":140.370191961,"geo_location":[140.370191961,37.3983523174]}
{"index":{}}
{"name":"門田ヨークベニマル店","address":"福島県会津若松市天神町２２－１２","latitude":37.4800064996,"longitude":139.934347152,"geo_location":[139.934347152,37.4800064996]}
{"index":{}}
{"name":"平イトーヨーカドー店","address":"福島県いわき市平６－６－２","latitude":37.0575653911,"longitude":140.897801835,"geo_location":[140.897801835,37.0575653911]}
{"index":{}}
{"name":"郡山フェスタ店","address":"福島県郡山市日和田町字小原一番地","latitude":37.4441033612,"longitude":140.376569098,"geo_location":[140.376569098,37.4441033612]}
{"index":{}}
{"name":"郡山駅西口店","address":"福島県郡山市駅前１－２","latitude":37.3972454502,"longitude":140.38806908,"geo_location":[140.38806908,37.3972454502]}
{"index":{}}
{"name":"イオンタウン須賀川店","address":"福島県須賀川市字古河１０５","latitude":37.2986564051,"longitude":140.38577615,"geo_location":[140.38577615,37.2986564051]}
{"index":{}}
{"name":"会津若松アピタ店","address":"福島県会津若松市幕内南町９－１０","latitude":37.483901326,"longitude":139.904483183,"geo_location":[139.904483183,37.483901326]}
{"index":{}}
{"name":"いわき小名浜店","address":"福島県いわき市小名浜岡小名１９－２","latitude":36.9601483075,"longitude":140.903649808,"geo_location":[140.903649808,36.9601483075]}
{"index":{}}
{"name":"郡山駅東ショッピングセンター店","address":"福島県郡山市向河原町４－６１","latitude":37.4014443533,"longitude":140.395766008,"geo_location":[140.395766008,37.4014443533]}
{"index":{}}
{"name":"４号線須賀川店","address":"福島県須賀川市大字森宿字ヒジリ田１３－１","latitude":37.3112832899,"longitude":140.366016182,"geo_location":[140.366016182,37.3112832899]}
{"index":{}}
{"name":"４号線南福島店","address":"福島県福島市黒岩字堂ノ後４９－１","latitude":37.7264304197,"longitude":140.466413101,"geo_location":[140.466413101,37.7264304197]}
{"index":{}}
{"name":"６号線相馬塚ノ町店","address":"福島県相馬市中村字砂子田１３５－１","latitude":37.8007801568,"longitude":140.928342897,"geo_location":[140.928342897,37.8007801568]}
{"index":{}}
{"name":"郡山安積店","address":"福島県郡山市安積町荒井字戸蘭塔１－７","latitude":37.3659404559,"longitude":140.36941319,"geo_location":[140.36941319,37.3659404559]}
{"index":{}}
{"name":"いわき植田店","address":"福島県いわき市植田町根小屋１１－２","latitude":36.9220834769,"longitude":140.786284817,"geo_location":[140.786284817,36.9220834769]}
{"index":{}}
{"name":"２８９新白河店","address":"福島県白河市新白河２－１２１","latitude":37.1225753573,"longitude":140.194796995,"geo_location":[140.194796995,37.1225753573]}
{"index":{}}
{"name":"喜多方店","address":"福島県喜多方市江中子４１８１－１","latitude":37.6476473279,"longitude":139.879976121,"geo_location":[139.879976121,37.6476473279]}
{"index":{}}
{"name":"４号線福島入江町店","address":"福島県福島市入江町１５－１","latitude":37.769209257,"longitude":140.481384033,"geo_location":[140.481384033,37.769209257]}
{"index":{}}
{"name":"いわき鹿島店","address":"福島県いわき市鹿島町走熊字四反田７－１","latitude":36.9996703794,"longitude":140.909909753,"geo_location":[140.909909753,36.9996703794]}
{"index":{}}
{"name":"イオンモールいわき小名浜店","address":"福島県いわき市小名浜字辰巳町７９番地３Ｆ","latitude":36.9467795083,"longitude":140.902194965,"geo_location":[140.902194965,36.9467795083]}
{"index":{}}
{"name":"真鍋新町店","address":"茨城県土浦市真鍋新町２０－３６","latitude":36.0894417343,"longitude":140.207673741,"geo_location":[140.207673741,36.0894417343]}
{"index":{}}
{"name":"つくば学園店","address":"茨城県つくば市小野崎字千駄苅２９３－１","latitude":36.0763775929,"longitude":140.103633956,"geo_location":[140.103633956,36.0763775929]}
{"index":{}}
{"name":"水戸駅南店","address":"茨城県水戸市城南２－８－２","latitude":36.3668936106,"longitude":140.476511777,"geo_location":[140.476511777,36.3668936106]}
{"index":{}}
{"name":"牛久店","address":"茨城県牛久市猪子町８０６－１","latitude":35.9919496415,"longitude":140.145163913,"geo_location":[140.145163913,35.9919496415]}
{"index":{}}
{"name":"古河店","address":"茨城県古河市大字西牛ケ谷２６０","latitude":36.2048637744,"longitude":139.74144287,"geo_location":[139.74144287,36.2048637744]}
{"index":{}}
{"name":"日立金沢店","address":"茨城県日立市金沢町４－１－１６","latitude":36.5404113415,"longitude":140.621788983,"geo_location":[140.621788983,36.5404113415]}
{"index":{}}
{"name":"６号石岡店","address":"茨城県石岡市東大橋２７５２－２","latitude":36.1945326165,"longitude":140.297956975,"geo_location":[140.297956975,36.1945326165]}
{"index":{}}
{"name":"那珂町店","address":"茨城県那珂市竹ノ内３－６－５","latitude":36.4481634515,"longitude":140.501929779,"geo_location":[140.501929779,36.4481634515]}
{"index":{}}
{"name":"守谷ジョイフル本田店","address":"茨城県守谷市松ヶ丘３－８","latitude":35.9385047292,"longitude":139.987711982,"geo_location":[139.987711982,35.9385047292]}
{"index":{}}
{"name":"５０号下館店","address":"茨城県筑西市玉戸１０１８","latitude":36.2951606078,"longitude":139.940302968,"geo_location":[139.940302968,36.2951606078]}
{"index":{}}
{"name":"５０号水戸赤塚店","address":"茨城県水戸市赤塚２－２００５－１０","latitude":36.386959402,"longitude":140.416539914,"geo_location":[140.416539914,36.386959402]}
{"index":{}}
{"name":"５０号バイパス水戸店","address":"茨城県水戸市千波町２０７７－５","latitude":36.3505685723,"longitude":140.438519863,"geo_location":[140.438519863,36.3505685723]}
{"index":{}}
{"name":"水海道バイパス店","address":"茨城県常総市水海道渕頭町４５６６","latitude":36.0182465087,"longitude":139.995981897,"geo_location":[139.995981897,36.0182465087]}
{"index":{}}
{"name":"５１号潮来店","address":"茨城県潮来市須賀２８３７－１","latitude":35.9509985737,"longitude":140.567124887,"geo_location":[140.567124887,35.9509985737]}
{"index":{}}
{"name":"５０号岩瀬店","address":"茨城県桜川市御領１－６５","latitude":36.3650455428,"longitude":140.105704816,"geo_location":[140.105704816,36.3650455428]}
{"index":{}}
{"name":"イオン東海店","address":"茨城県那珂郡東海村舟石川駅東４－１－１","latitude":36.4636415605,"longitude":140.566891931,"geo_location":[140.566891931,36.4636415605]}
{"index":{}}
{"name":"麻生セイミヤ店","address":"茨城県行方市麻生３２８８－２９","latitude":36.0180705395,"longitude":140.498878696,"geo_location":[140.498878696,36.0180705395]}
{"index":{}}
{"name":"那珂町ホーマック店","address":"茨城県那珂市菅谷１６１４","latitude":36.428369391,"longitude":140.515092002,"geo_location":[140.515092002,36.428369391]}
{"index":{}}
{"name":"５１号大洗インター店","address":"茨城県水戸市塩崎町８７６－１","latitude":36.3331204046,"longitude":140.553800812,"geo_location":[140.553800812,36.3331204046]}
{"index":{}}
{"name":"ひたちなか昭和通り店","address":"茨城県ひたちなか市東石川字宮下１０１５－１","latitude":36.3954845644,"longitude":140.537388727,"geo_location":[140.537388727,36.3954845644]}
{"index":{}}
{"name":"牛久カスミ店","address":"茨城県牛久市神谷６－１－３","latitude":35.9686555007,"longitude":140.151663765,"geo_location":[140.151663765,35.9686555007]}
{"index":{}}
{"name":"５０号笠間店","address":"茨城県笠間市赤坂４－４","latitude":36.3936235102,"longitude":140.250609869,"geo_location":[140.250609869,36.3936235102]}
{"index":{}}
{"name":"竜ヶ崎ニュータウン店","address":"茨城県龍ケ崎市中根台４－９－２","latitude":35.9310087249,"longitude":140.175464962,"geo_location":[140.175464962,35.9310087249]}
{"index":{}}
{"name":"土浦田中店","address":"茨城県土浦市田中１－１３１２","latitude":36.084355719,"longitude":140.190161829,"geo_location":[140.190161829,36.084355719]}
{"index":{}}
{"name":"常陸太田店","address":"茨城県常陸太田市塙町字鯉沼２９５４","latitude":36.5426215976,"longitude":140.530366941,"geo_location":[140.530366941,36.5426215976]}
{"index":{}}
{"name":"６号線千代田町店","address":"茨城県かすみがうら市上稲吉１９４３－１４","latitude":36.1313974949,"longitude":140.225886008,"geo_location":[140.225886008,36.1313974949]}
{"index":{}}
{"name":"４０８つくば大曽根店","address":"茨城県つくば市筑穂１－１－２","latitude":36.1379095029,"longitude":140.082283781,"geo_location":[140.082283781,36.1379095029]}
{"index":{}}
{"name":"５０号結城バイパス店","address":"茨城県結城市下り松６－１－２","latitude":36.2868876917,"longitude":139.870204024,"geo_location":[139.870204024,36.2868876917]}
{"index":{}}
{"name":"北竜台サプラ店","address":"茨城県龍ケ崎市小柴５－１","latitude":35.9323987242,"longitude":140.160770873,"geo_location":[140.160770873,35.9323987242]}
{"index":{}}
{"name":"高萩モールベイシア店","address":"茨城県高萩市下手綱１０６９","latitude":36.7284954242,"longitude":140.715701774,"geo_location":[140.715701774,36.7284954242]}
{"index":{}}
{"name":"阿見カスミ店","address":"茨城県稲敷郡阿見町中郷２－７－２４","latitude":36.0388776429,"longitude":140.215084929,"geo_location":[140.215084929,36.0388776429]}
{"index":{}}
{"name":"１２５三和店","address":"茨城県古河市諸川１２４１－１","latitude":36.2011405777,"longitude":139.812933024,"geo_location":[139.812933024,36.2011405777]}
{"index":{}}
{"name":"友部スクエア店","address":"茨城県笠間市住吉１３６４－１","latitude":36.3200364866,"longitude":140.328420789,"geo_location":[140.328420789,36.3200364866]}
{"index":{}}
{"name":"１２５阿見店","address":"茨城県稲敷郡阿見町中郷２－３０－３","latitude":36.041292497,"longitude":140.209545855,"geo_location":[140.209545855,36.041292497]}
{"index":{}}
{"name":"１１８水戸中河内店","address":"茨城県水戸市中河内町２６２３－２","latitude":36.4052185669,"longitude":140.461014803,"geo_location":[140.461014803,36.4052185669]}
{"index":{}}
{"name":"６号線水戸住吉店","address":"茨城県水戸市住吉町９６－１","latitude":36.3358115206,"longitude":140.474715745,"geo_location":[140.474715745,36.3358115206]}
{"index":{}}
{"name":"西代パルナ店","address":"茨城県稲敷市西代１４９５","latitude":35.9182345284,"longitude":140.487923768,"geo_location":[140.487923768,35.9182345284]}
{"index":{}}
{"name":"２９４新守谷店","address":"茨城県守谷市御所ケ丘１－２－２","latitude":35.9656635379,"longitude":139.985076927,"geo_location":[139.985076927,35.9656635379]}
{"index":{}}
{"name":"２４５ひたちなか店","address":"茨城県ひたちなか市馬渡字砂久保５４７－１","latitude":36.4013545528,"longitude":140.580875896,"geo_location":[140.580875896,36.4013545528]}
{"index":{}}
{"name":"１２４鹿嶋店","address":"茨城県鹿嶋市大字宮中３１６－１","latitude":35.9603845793,"longitude":140.642013732,"geo_location":[140.642013732,35.9603845793]}
{"index":{}}
{"name":"５０号水戸大塚店","address":"茨城県水戸市大塚町１５３９－１","latitude":36.3862185624,"longitude":140.393193876,"geo_location":[140.393193876,36.3862185624]}
{"index":{}}
{"name":"総和とりせん店","address":"茨城県古河市下大野２００８－１","latitude":36.1674137475,"longitude":139.768384054,"geo_location":[139.768384054,36.1674137475]}
{"index":{}}
{"name":"２９４石下店","address":"茨城県常総市大字新石下１６０３－１","latitude":36.1093397555,"longitude":139.983127016,"geo_location":[139.983127016,36.1093397555]}
{"index":{}}
{"name":"佐貫駅前店","address":"茨城県龍ケ崎市佐貫町６４６","latitude":35.9300367187,"longitude":140.138512858,"geo_location":[140.138512858,35.9300367187]}
{"index":{}}
{"name":"岩井店","address":"茨城県坂東市岩井３４５２－１","latitude":36.0507266173,"longitude":139.889409913,"geo_location":[139.889409913,36.0507266173]}
{"index":{}}
{"name":"６号線大津店","address":"茨城県北茨城市大津町２６８５－１","latitude":36.8380554556,"longitude":140.783730935,"geo_location":[140.783730935,36.8380554556]}
{"index":{}}
{"name":"２９４下館一本松店","address":"茨城県筑西市一本松１５３３－１","latitude":36.2953497348,"longitude":139.970182908,"geo_location":[139.970182908,36.2953497348]}
{"index":{}}
{"name":"１２４波崎店","address":"茨城県神栖市波崎８５１５－１","latitude":35.7488677245,"longitude":140.822410674,"geo_location":[140.822410674,35.7488677245]}
{"index":{}}
{"name":"江戸崎パンプ店","address":"茨城県稲敷市江戸崎甲４８３６","latitude":35.9592385461,"longitude":140.316138823,"geo_location":[140.316138823,35.9592385461]}
{"index":{}}
{"name":"土浦天川店","address":"茨城県土浦市中高津３－５－９","latitude":36.0656995655,"longitude":140.182694902,"geo_location":[140.182694902,36.0656995655]}
{"index":{}}
{"name":"６号線藤代店","address":"茨城県取手市谷中２０８－１","latitude":35.9194387684,"longitude":140.108640828,"geo_location":[140.108640828,35.9194387684]}
{"index":{}}
{"name":"新治さん・あぴお店","address":"茨城県土浦市大畑１６１１","latitude":36.1195704882,"longitude":140.174756955,"geo_location":[140.174756955,36.1195704882]}
{"index":{}}
{"name":"日立小木津店","address":"茨城県日立市相田町１－８－５","latitude":36.630226515,"longitude":140.684021774,"geo_location":[140.684021774,36.630226515]}
{"index":{}}
{"name":"日立豊浦カスミ店","address":"茨城県日立市川尻町５－３－１７","latitude":36.6657785177,"longitude":140.691177964,"geo_location":[140.691177964,36.6657785177]}
{"index":{}}
{"name":"日立カインズホーム店","address":"茨城県日立市留町字前川１２７０－２カインズホーム日立店内","latitude":36.4915194427,"longitude":140.604173962,"geo_location":[140.604173962,36.4915194427]}
{"index":{}}
{"name":"千代田モールヨークベニマル店","address":"茨城県かすみがうら市下稲吉逆西２６３３－７","latitude":36.1264537296,"longitude":140.230298894,"geo_location":[140.230298894,36.1264537296]}
{"index":{}}
{"name":"坂東ヨークタウン店","address":"茨城県坂東市辺田１１０４－１","latitude":36.0383555639,"longitude":139.89119388,"geo_location":[139.89119388,36.0383555639]}
{"index":{}}
{"name":"イオンモール水戸内原店","address":"茨城県水戸市内原２－１","latitude":36.3753955212,"longitude":140.359431928,"geo_location":[140.359431928,36.3753955212]}
{"index":{}}
{"name":"北茨城中郷店","address":"茨城県北茨城市中郷町上桜井２２５９","latitude":36.781456339900004,"longitude":140.734862842,"geo_location":[140.734862842,36.781456339900004]}
{"index":{}}
{"name":"ひたちなか高場店","address":"茨城県ひたちなか市高場１１３９－１","latitude":36.4207256399,"longitude":140.538916969,"geo_location":[140.538916969,36.4207256399]}
{"index":{}}
{"name":"イオンタウン水戸南店","address":"茨城県東茨城郡茨城町長岡３４８０―１０１","latitude":36.3106865018,"longitude":140.44162295,"geo_location":[140.44162295,36.3106865018]}
{"index":{}}
{"name":"イオンタウン守谷店","address":"茨城県守谷市百合ケ丘３－２４９－１","latitude":35.9451476911,"longitude":139.991415006,"geo_location":[139.991415006,35.9451476911]}
{"index":{}}
{"name":"１１８常陸大宮店","address":"茨城県常陸大宮市石沢１８６３－１","latitude":36.5407184721,"longitude":140.410210866,"geo_location":[140.410210866,36.5407184721]}
{"index":{}}
{"name":"イーアスつくば店","address":"茨城県つくば市研究学園５－１９","latitude":36.0861165217,"longitude":140.084298809,"geo_location":[140.084298809,36.0861165217]}
{"index":{}}
{"name":"イオンモール土浦店","address":"茨城県土浦市上高津３６７イオン土浦ＳＣ内３階フードコート","latitude":36.0803417477,"longitude":140.180721963,"geo_location":[140.180721963,36.0803417477]}
{"index":{}}
{"name":"５０号水戸大工町店","address":"茨城県水戸市大工町２－６－３３","latitude":36.380815658,"longitude":140.456865913,"geo_location":[140.456865913,36.380815658]}
{"index":{}}
{"name":"ＪＲ水戸駅店","address":"茨城県水戸市宮町１－１－１","latitude":36.3707156601,"longitude":140.475858893,"geo_location":[140.475858893,36.3707156601]}
{"index":{}}
{"name":"荒川沖東店","address":"茨城県土浦市荒川沖東２－１８－５","latitude":36.0267447241,"longitude":140.16991982,"geo_location":[140.16991982,36.0267447241]}
{"index":{}}
{"name":"境町店","address":"茨城県猿島郡境町大字長井戸字南前２５４","latitude":36.122727751,"longitude":139.801178091,"geo_location":[139.801178091,36.122727751]}
{"index":{}}
{"name":"つくば研究学園店","address":"茨城県つくば市研究学園４－１－１","latitude":36.0855346657,"longitude":140.074931852,"geo_location":[140.074931852,36.0855346657]}
{"index":{}}
{"name":"４号線古河店","address":"茨城県古河市古河８０２－１","latitude":36.1880616991,"longitude":139.717546994,"geo_location":[139.717546994,36.1880616991]}
{"index":{}}
{"name":"龍ヶ崎店","address":"茨城県龍ケ崎市寺後３５７２－１","latitude":35.9099916127,"longitude":140.184371738,"geo_location":[140.184371738,35.9099916127]}
{"index":{}}
{"name":"１２５下妻店","address":"茨城県下妻市大字下妻戊１０７","latitude":36.1802035637,"longitude":139.968495889,"geo_location":[139.968495889,36.1802035637]}
{"index":{}}
{"name":"３５４つくば上横場店","address":"茨城県つくば市上横場２１６６－１","latitude":36.0395895571,"longitude":140.084419887,"geo_location":[140.084419887,36.0395895571]}
{"index":{}}
{"name":"イオンモールつくば店","address":"茨城県つくば市稲岡６６－１","latitude":36.034034565,"longitude":140.133104868,"geo_location":[140.133104868,36.034034565]}
{"index":{}}
{"name":"神栖店","address":"茨城県神栖市筒井１６６６－１","latitude":35.9015996309,"longitude":140.636005852,"geo_location":[140.636005852,35.9015996309]}
{"index":{}}
{"name":"６号線日立店","address":"茨城県日立市鹿島町３－４－６","latitude":36.5880643964,"longitude":140.645998768,"geo_location":[140.645998768,36.5880643964]}
{"index":{}}
{"name":"６号線ひたちなか店","address":"茨城県ひたちなか市市毛８０５－１","latitude":36.3988674711,"longitude":140.505775991,"geo_location":[140.505775991,36.3988674711]}
{"index":{}}
{"name":"アピタ足利店","address":"栃木県足利市朝倉町２４５","latitude":36.3205497022,"longitude":139.449533964,"geo_location":[139.449533964,36.3205497022]}
{"index":{}}
{"name":"栃木バイパス店","address":"栃木県栃木市薗部町２－６－３４","latitude":36.3742205088,"longitude":139.715188945,"geo_location":[139.715188945,36.3742205088]}
{"index":{}}
{"name":"５０号小山店","address":"栃木県小山市西城南３－１－３４","latitude":36.2999674975,"longitude":139.805259868,"geo_location":[139.805259868,36.2999674975]}
{"index":{}}
{"name":"鹿沼晃望台店","address":"栃木県鹿沼市貝島町５７３－１","latitude":36.5599216053,"longitude":139.766032941,"geo_location":[139.766032941,36.5599216053]}
{"index":{}}
{"name":"西那須野店","address":"栃木県那須塩原市南郷屋２－１０６－２７","latitude":36.8953623692,"longitude":139.982732022,"geo_location":[139.982732022,36.8953623692]}
{"index":{}}
{"name":"４号線氏家店","address":"栃木県さくら市卯の里４－５１－１","latitude":36.6806645376,"longitude":139.959094882,"geo_location":[139.959094882,36.6806645376]}
{"index":{}}
{"name":"白沢街道宇都宮店","address":"栃木県宇都宮市下川俣町２０６－３２５","latitude":36.5928806379,"longitude":139.918459028,"geo_location":[139.918459028,36.5928806379]}
{"index":{}}
{"name":"４号線石橋店","address":"栃木県下野市文教２－１－１４","latitude":36.443861656,"longitude":139.864269934,"geo_location":[139.864269934,36.443861656]}
{"index":{}}
{"name":"４０８真岡店","address":"栃木県真岡市長田５－１－２","latitude":36.4368315244,"longitude":139.962317946,"geo_location":[139.962317946,36.4368315244]}
{"index":{}}
{"name":"５０号岩舟店","address":"栃木県栃木市岩舟町静２３６１－２","latitude":36.3148855969,"longitude":139.66451797,"geo_location":[139.66451797,36.3148855969]}
{"index":{}}
{"name":"福田屋ショッピングプラザ店","address":"栃木県宇都宮市今泉町２３７","latitude":36.5741075543,"longitude":139.900314987,"geo_location":[139.900314987,36.5741075543]}
{"index":{}}
{"name":"黒磯ＭＥＧＡドン・キホーテ店","address":"栃木県那須塩原市材木町３－５","latitude":36.9732194776,"longitude":140.048932142,"geo_location":[140.048932142,36.9732194776]}
{"index":{}}
{"name":"宇都宮西口店","address":"栃木県宇都宮市駅前通り３－２","latitude":36.558680611,"longitude":139.897123966,"geo_location":[139.897123966,36.558680611]}
{"index":{}}
{"name":"野木出光ＳＳ店","address":"栃木県下都賀郡野木町友沼４９３４","latitude":36.235938754,"longitude":139.727191974,"geo_location":[139.727191974,36.235938754]}
{"index":{}}
{"name":"５０号足利店","address":"栃木県足利市上渋垂町３４９－１","latitude":36.3068266858,"longitude":139.465249012,"geo_location":[139.465249012,36.3068266858]}
{"index":{}}
{"name":"４号線小山店","address":"栃木県小山市大字神鳥谷３０８－２","latitude":36.2999606529,"longitude":139.788457973,"geo_location":[139.788457973,36.2999606529]}
{"index":{}}
{"name":"鹿沼インター通り店","address":"栃木県宇都宮市鶴田町字免ノ内１５１２－２４","latitude":36.5490464981,"longitude":139.848917117,"geo_location":[139.848917117,36.5490464981]}
{"index":{}}
{"name":"今市バイパス店","address":"栃木県日光市今市１０６８－１","latitude":36.7251106878,"longitude":139.699896952,"geo_location":[139.699896952,36.7251106878]}
{"index":{}}
{"name":"イオン今市店","address":"栃木県日光市豊田７９－１","latitude":36.7304224209,"longitude":139.704178026,"geo_location":[139.704178026,36.7304224209]}
{"index":{}}
{"name":"自治医大かましん店","address":"栃木県下野市祇園１－１－５","latitude":36.3942296229,"longitude":139.858005044,"geo_location":[139.858005044,36.3942296229]}
{"index":{}}
{"name":"５０号佐野店","address":"栃木県佐野市下羽田町字車田６０５－１","latitude":36.2903927018,"longitude":139.54699517,"geo_location":[139.54699517,36.2903927018]}
{"index":{}}
{"name":"４号線小金井店","address":"栃木県下野市小金井４－２３－６","latitude":36.3781676602,"longitude":139.841377971,"geo_location":[139.841377971,36.3781676602]}
{"index":{}}
{"name":"小山稲葉郷店","address":"栃木県小山市城北３－２０－３","latitude":36.3274745868,"longitude":139.823216912,"geo_location":[139.823216912,36.3274745868]}
{"index":{}}
{"name":"宇都宮上戸祭店","address":"栃木県宇都宮市上戸祭町３３５－１","latitude":36.5886446423,"longitude":139.864576051,"geo_location":[139.864576051,36.5886446423]}
{"index":{}}
{"name":"足利八幡町ヤオコー店","address":"栃木県足利市八幡町６００－１","latitude":36.325947553,"longitude":139.433778985,"geo_location":[139.433778985,36.325947553]}
{"index":{}}
{"name":"４号線雀宮店","address":"栃木県宇都宮市宮の内４－２２８－１","latitude":36.4991114866,"longitude":139.874410917,"geo_location":[139.874410917,36.4991114866]}
{"index":{}}
{"name":"石井たいらや店","address":"栃木県宇都宮市石井町２８００－５７","latitude":36.5471455393,"longitude":139.927702941,"geo_location":[139.927702941,36.5471455393]}
{"index":{}}
{"name":"イオンモール佐野新都市店","address":"栃木県佐野市高萩町１３２４－１","latitude":36.2992946786,"longitude":139.606201947,"geo_location":[139.606201947,36.2992946786]}
{"index":{}}
{"name":"宇都宮インターパーク福田屋店","address":"栃木県宇都宮市インターパーク６－１－１","latitude":36.4899414894,"longitude":139.907477913,"geo_location":[139.907477913,36.4899414894]}
{"index":{}}
{"name":"宇都宮ベルモール店","address":"栃木県宇都宮市陽東６－２－１","latitude":36.5562806427,"longitude":139.92884607,"geo_location":[139.92884607,36.5562806427]}
{"index":{}}
{"name":"上三川インターチェンジ店","address":"栃木県宇都宮市東谷町１２－１","latitude":36.4808366281,"longitude":139.905182936,"geo_location":[139.905182936,36.4808366281]}
{"index":{}}
{"name":"平成通り宇都宮店","address":"栃木県宇都宮市簗瀬１―１３―１１","latitude":36.5497806203,"longitude":139.890922095,"geo_location":[139.890922095,36.5497806203]}
{"index":{}}
{"name":"おやまゆうえんハーヴェストウォー","address":"栃木県小山市喜沢１４７５","latitude":36.3352485391,"longitude":139.806924928,"geo_location":[139.806924928,36.3352485391]}
{"index":{}}
{"name":"アシコタウンあしかが店","address":"栃木県足利市大月町３－２","latitude":36.336219746,"longitude":139.476052985,"geo_location":[139.476052985,36.336219746]}
{"index":{}}
{"name":"佐野浅沼店","address":"栃木県佐野市浅沼町７１６－１","latitude":36.313991778,"longitude":139.591488991,"geo_location":[139.591488991,36.313991778]}
{"index":{}}
{"name":"矢板市役所通り店","address":"栃木県矢板市富田１３７","latitude":36.7991015393,"longitude":139.926985102,"geo_location":[139.926985102,36.7991015393]}
{"index":{}}
{"name":"宝積寺バイパス店","address":"栃木県塩谷郡高根沢町光陽台１－１２－３","latitude":36.6196145696,"longitude":139.990302015,"geo_location":[139.990302015,36.6196145696]}
{"index":{}}
{"name":"環状線栃木店","address":"栃木県栃木市平柳町２－２４－１５","latitude":36.3939616944,"longitude":139.749359084,"geo_location":[139.749359084,36.3939616944]}
{"index":{}}
{"name":"宇都宮テクノポリスセンター店","address":"栃木県宇都宮市ゆいの杜１－２－７７","latitude":36.5673075715,"longitude":139.984081982,"geo_location":[139.984081982,36.5673075715]}
{"index":{}}
{"name":"２９４真岡店","address":"栃木県真岡市田町１３３５－１","latitude":36.4366285723,"longitude":140.015950035,"geo_location":[140.015950035,36.4366285723]}
{"index":{}}
{"name":"４号線宇都宮泉が丘店","address":"栃木県宇都宮市泉が丘５－８－２","latitude":36.5704634175,"longitude":139.916670127,"geo_location":[139.916670127,36.5704634175]}
{"index":{}}
{"name":"おもちゃのまちフレスポ店","address":"栃木県下都賀郡壬生町おもちゃのまち３－２－２５","latitude":36.4628466498,"longitude":139.841333049,"geo_location":[139.841333049,36.4628466498]}
{"index":{}}
{"name":"４００大田原店","address":"栃木県大田原市浅香１－５－２６","latitude":36.859240372,"longitude":140.012471014,"geo_location":[140.012471014,36.859240372]}
{"index":{}}
{"name":"宇都宮西川田店","address":"栃木県宇都宮市西川田町１０２３－２","latitude":36.5338776117,"longitude":139.856997895,"geo_location":[139.856997895,36.5338776117]}
{"index":{}}
{"name":"新前橋店","address":"群馬県前橋市大友町１－４－１","latitude":36.3866716829,"longitude":139.047947246,"geo_location":[139.047947246,36.3866716829]}
{"index":{}}
{"name":"１７号高崎店","address":"群馬県高崎市問屋町西２－４－１","latitude":36.3472996315,"longitude":139.00053017,"geo_location":[139.00053017,36.3472996315]}
{"index":{}}
{"name":"伊勢崎店","address":"群馬県伊勢崎市連取町２３３５－１","latitude":36.3106967595,"longitude":139.184229977,"geo_location":[139.184229977,36.3106967595]}
{"index":{}}
{"name":"前橋三俣町店","address":"群馬県前橋市三俣町３－３３－３２","latitude":36.3991548036,"longitude":139.08290205,"geo_location":[139.08290205,36.3991548036]}
{"index":{}}
{"name":"東高崎店","address":"群馬県高崎市上大類町９３１","latitude":36.33648665,"longitude":139.030026118,"geo_location":[139.030026118,36.33648665]}
{"index":{}}
{"name":"前橋荒牧店","address":"群馬県前橋市荒牧町２－４３－２６","latitude":36.4284795927,"longitude":139.054676068,"geo_location":[139.054676068,36.4284795927]}
{"index":{}}
{"name":"渋川店","address":"群馬県渋川市行幸田３０７－２","latitude":36.4726875961,"longitude":139.002491272,"geo_location":[139.002491272,36.4726875961]}
{"index":{}}
{"name":"４０７太田店","address":"群馬県太田市西矢島６０８－１","latitude":36.2753267974,"longitude":139.377557006,"geo_location":[139.377557006,36.2753267974]}
{"index":{}}
{"name":"館林店","address":"群馬県館林市美園町３－４","latitude":36.235319608,"longitude":139.529943897,"geo_location":[139.529943897,36.235319608]}
{"index":{}}
{"name":"沼田インター店","address":"群馬県沼田市下久屋町１１００－１","latitude":36.656871609,"longitude":139.077666067,"geo_location":[139.077666067,36.656871609]}
{"index":{}}
{"name":"大胡バイパス店","address":"群馬県前橋市大胡町３４９－１","latitude":36.4112277446,"longitude":139.16124007,"geo_location":[139.16124007,36.4112277446]}
{"index":{}}
{"name":"館林アゼリアモール店","address":"群馬県館林市楠町３６４８－１","latitude":36.2406697877,"longitude":139.569451123,"geo_location":[139.569451123,36.2406697877]}
{"index":{}}
{"name":"５０号桐生店","address":"群馬県桐生市広沢町３－３８１８－１","latitude":36.3871665741,"longitude":139.325982132,"geo_location":[139.325982132,36.3871665741]}
{"index":{}}
{"name":"大間々さくらもーる店","address":"群馬県みどり市大字大間々４０","latitude":36.4141695316,"longitude":139.28176622,"geo_location":[139.28176622,36.4141695316]}
{"index":{}}
{"name":"大間々ベイシア店","address":"群馬県みどり市大字大間々１７７１－３","latitude":36.4287227925,"longitude":139.278771157,"geo_location":[139.278771157,36.4287227925]}
{"index":{}}
{"name":"１８号安中店","address":"群馬県安中市中宿字石合８１９","latitude":36.3328648308,"longitude":138.914775113,"geo_location":[138.914775113,36.3328648308]}
{"index":{}}
{"name":"富岡バイパス店","address":"群馬県富岡市富岡字清水２２５９－２","latitude":36.2633767848,"longitude":138.899181218,"geo_location":[138.899181218,36.2633767848]}
{"index":{}}
{"name":"伊勢崎宮子町店","address":"群馬県伊勢崎市宮子町３４５０－１","latitude":36.3363497296,"longitude":139.155249206,"geo_location":[139.155249206,36.3363497296]}
{"index":{}}
{"name":"赤堀ベイシア店","address":"群馬県伊勢崎市市場町１－１５４２","latitude":36.3707287833,"longitude":139.224707088,"geo_location":[139.224707088,36.3707287833]}
{"index":{}}
{"name":"伊勢崎東Ｍ．ドン・キホーテＵＮＹ","address":"群馬県伊勢崎市三室町５３３０","latitude":36.3291276224,"longitude":139.232620054,"geo_location":[139.232620054,36.3291276224]}
{"index":{}}
{"name":"５０号原宿南店","address":"群馬県太田市丸山町１４０７","latitude":36.34673376,"longitude":139.380711027,"geo_location":[139.380711027,36.34673376]}
{"index":{}}
{"name":"新田ショッピングセンター店","address":"群馬県太田市新田市野井町７１３","latitude":36.3029835638,"longitude":139.301818221,"geo_location":[139.301818221,36.3029835638]}
{"index":{}}
{"name":"新田町店","address":"群馬県太田市新田市野井町７１５","latitude":36.3055535928,"longitude":139.303447976,"geo_location":[139.303447976,36.3055535928]}
{"index":{}}
{"name":"邑楽カインズホーム店","address":"群馬県邑楽郡邑楽町大字中野３８９０－２７","latitude":36.2698666482,"longitude":139.483223987,"geo_location":[139.483223987,36.2698666482]}
{"index":{}}
{"name":"藤岡インター店","address":"群馬県藤岡市篠塚６６－１","latitude":36.2568747996,"longitude":139.068470202,"geo_location":[139.068470202,36.2568747996]}
{"index":{}}
{"name":"３５４大泉店","address":"群馬県邑楽郡大泉町朝日３－１８－２","latitude":36.2571806203,"longitude":139.422401952,"geo_location":[139.422401952,36.2571806203]}
{"index":{}}
{"name":"吉岡フォリオ店","address":"群馬県北群馬郡吉岡町大久保９０１－１","latitude":36.4181586373,"longitude":139.026802232,"geo_location":[139.026802232,36.4181586373]}
{"index":{}}
{"name":"玉村とりせん店","address":"群馬県佐波郡玉村町上飯島２７０－１","latitude":36.3021686858,"longitude":139.126399199,"geo_location":[139.126399199,36.3021686858]}
{"index":{}}
{"name":"高崎小塙町店","address":"群馬県高崎市下小塙町１０３０－１","latitude":36.3497096143,"longitude":138.968465065,"geo_location":[138.968465065,36.3497096143]}
{"index":{}}
{"name":"渋川鯉沢カインズホーム店","address":"群馬県渋川市白井９１９","latitude":36.5066815563,"longitude":139.015347099,"geo_location":[139.015347099,36.5066815563]}
{"index":{}}
{"name":"５０号前橋朝日町店","address":"群馬県前橋市朝日町３－１９－１","latitude":36.3845368074,"longitude":139.085106068,"geo_location":[139.085106068,36.3845368074]}
{"index":{}}
{"name":"イオンモール太田店","address":"群馬県太田市石原町８１","latitude":36.2951415323,"longitude":139.399850111,"geo_location":[139.399850111,36.2951415323]}
{"index":{}}
{"name":"桐生マーケットシティ店","address":"群馬県桐生市相生町１－１２４－１","latitude":36.4052457063,"longitude":139.318638965,"geo_location":[139.318638965,36.4052457063]}
{"index":{}}
{"name":"イオンモール高崎店","address":"群馬県高崎市棟高町１４００","latitude":36.3909948018,"longitude":139.006326222,"geo_location":[139.006326222,36.3909948018]}
{"index":{}}
{"name":"前橋けやきウォーク店","address":"群馬県前橋市文京町２－１－１","latitude":36.3788425568,"longitude":139.078454098,"geo_location":[139.078454098,36.3788425568]}
{"index":{}}
{"name":"ＪＲ前橋駅店","address":"群馬県前橋市表町２－２９－１６","latitude":36.3831596831,"longitude":139.072494158,"geo_location":[139.072494158,36.3831596831]}
{"index":{}}
{"name":"倉賀野西店","address":"群馬県高崎市倉賀野町字下新堀３９２－１","latitude":36.2991297407,"longitude":139.038362195,"geo_location":[139.038362195,36.2991297407]}
{"index":{}}
{"name":"伊勢崎茂呂店","address":"群馬県伊勢崎市南千木町２３９３－１","latitude":36.2976315777,"longitude":139.215296167,"geo_location":[139.215296167,36.2976315777]}
{"index":{}}
{"name":"前橋みなみパワーモール店","address":"群馬県前橋市新堀町９５６","latitude":36.3297186908,"longitude":139.098469096,"geo_location":[139.098469096,36.3297186908]}
{"index":{}}
{"name":"前橋ガーデン店","address":"群馬県前橋市小屋原町５４６－１","latitude":36.3560815634,"longitude":139.131303243,"geo_location":[139.131303243,36.3560815634]}
{"index":{}}
{"name":"太田内ヶ島店","address":"群馬県太田市内ケ島町１４６１－１","latitude":36.2902297426,"longitude":139.39516516,"geo_location":[139.39516516,36.2902297426]}
{"index":{}}
{"name":"所沢店","address":"埼玉県所沢市日吉町２－２","latitude":35.7872307594,"longitude":139.472790849,"geo_location":[139.472790849,35.7872307594]}
{"index":{}}
{"name":"北浦和店","address":"埼玉県さいたま市浦和区北浦和３－４－１４","latitude":35.872555762,"longitude":139.646508986,"geo_location":[139.646508986,35.872555762]}
{"index":{}}
{"name":"蕨店","address":"埼玉県川口市芝新町４－１","latitude":35.8289196793,"longitude":139.691806056,"geo_location":[139.691806056,35.8289196793]}
{"index":{}}
{"name":"鶴瀬駅ビル店","address":"埼玉県富士見市大字鶴馬２６０２－３","latitude":35.8457747861,"longitude":139.538449005,"geo_location":[139.538449005,35.8457747861]}
{"index":{}}
{"name":"大宮駅前店","address":"埼玉県さいたま市大宮区大門町１－９２－６","latitude":35.9070007395,"longitude":139.625015814,"geo_location":[139.625015814,35.9070007395]}
{"index":{}}
{"name":"川越マイン店","address":"埼玉県川越市脇田町１０３","latitude":35.9073085912,"longitude":139.483675091,"geo_location":[139.483675091,35.9073085912]}
{"index":{}}
{"name":"１６号春日部店","address":"埼玉県春日部市南中曽根８５０－１","latitude":35.9721758089,"longitude":139.736368948,"geo_location":[139.736368948,35.9721758089]}
{"index":{}}
{"name":"西川口店","address":"埼玉県川口市並木２－２１－１","latitude":35.8153637845,"longitude":139.705001036,"geo_location":[139.705001036,35.8153637845]}
{"index":{}}
{"name":"１７号上尾店","address":"埼玉県上尾市日の出１－１０－１３","latitude":35.9648847801,"longitude":139.605360979,"geo_location":[139.605360979,35.9648847801]}
{"index":{}}
{"name":"ニューシャトル大宮店","address":"埼玉県さいたま市大宮区錦町６８５－１大宮駅構内","latitude":35.9072848096,"longitude":139.622611841,"geo_location":[139.622611841,35.9072848096]}
{"index":{}}
{"name":"浦和仲町店","address":"埼玉県さいたま市浦和区仲町１－２－１４","latitude":35.8595297002,"longitude":139.655654844,"geo_location":[139.655654844,35.8595297002]}
{"index":{}}
{"name":"草加店","address":"埼玉県草加市高砂１－２－１０","latitude":35.8254855844,"longitude":139.80427579,"geo_location":[139.80427579,35.8254855844]}
{"index":{}}
{"name":"新所沢店","address":"埼玉県所沢市緑町３－９","latitude":35.8004397323,"longitude":139.44849406,"geo_location":[139.44849406,35.8004397323]}
{"index":{}}
{"name":"川口朝日町店","address":"埼玉県川口市朝日３－１－８","latitude":35.8109117575,"longitude":139.735002829,"geo_location":[139.735002829,35.8109117575]}
{"index":{}}
{"name":"川口芝下店","address":"埼玉県川口市芝下１－７－２","latitude":35.8362537588,"longitude":139.698704062,"geo_location":[139.698704062,35.8362537588]}
{"index":{}}
{"name":"鴻巣店","address":"埼玉県鴻巣市箕田３１１１－１","latitude":36.08093157,"longitude":139.488740958,"geo_location":[139.488740958,36.08093157]}
{"index":{}}
{"name":"大宮西口店","address":"埼玉県さいたま市大宮区桜木町１－５－１","latitude":35.9050067396,"longitude":139.622831914,"geo_location":[139.622831914,35.9050067396]}
{"index":{}}
{"name":"１６号岩槻店","address":"埼玉県さいたま市岩槻区仲町２－４－２３","latitude":35.9437437769,"longitude":139.706597921,"geo_location":[139.706597921,35.9437437769]}
{"index":{}}
{"name":"大宮バイパス与野店","address":"埼玉県さいたま市中央区八王子１－４－１５","latitude":35.8849096267,"longitude":139.614730918,"geo_location":[139.614730918,35.8849096267]}
{"index":{}}
{"name":"桶川マイン店","address":"埼玉県桶川市若宮１－５－２","latitude":35.9979865628,"longitude":139.562882986,"geo_location":[139.562882986,35.9979865628]}
{"index":{}}
{"name":"アピタ本庄店","address":"埼玉県本庄市南１－２－１０","latitude":36.2363788014,"longitude":139.183196982,"geo_location":[139.183196982,36.2363788014]}
{"index":{}}
{"name":"熊谷バイパス店","address":"埼玉県熊谷市大字肥塚８７８－１","latitude":36.1656057695,"longitude":139.392309111,"geo_location":[139.392309111,36.1656057695]}
{"index":{}}
{"name":"４号線バイパス下間久里店","address":"埼玉県越谷市大字下間久里字源前７６３－１","latitude":35.9288245789,"longitude":139.787346924,"geo_location":[139.787346924,35.9288245789]}
{"index":{}}
{"name":"白岡店","address":"埼玉県白岡市西７－９－１９","latitude":36.0236135611,"longitude":139.652204868,"geo_location":[139.652204868,36.0236135611]}
{"index":{}}
{"name":"浦和大間木店","address":"埼玉県さいたま市緑区大間木５９０","latitude":35.8728688102,"longitude":139.699361969,"geo_location":[139.699361969,35.8728688102]}
{"index":{}}
{"name":"１７号北本店","address":"埼玉県北本市山中１－６０","latitude":36.0335248054,"longitude":139.543782898,"geo_location":[139.543782898,36.0335248054]}
{"index":{}}
{"name":"伊奈町店","address":"埼玉県北足立郡伊奈町栄３－４８","latitude":35.9792438259,"longitude":139.640669048,"geo_location":[139.640669048,35.9792438259]}
{"index":{}}
{"name":"若葉店","address":"埼玉県坂戸市千代田３－２１－２１","latitude":35.9505398002,"longitude":139.410399891,"geo_location":[139.410399891,35.9505398002]}
{"index":{}}
{"name":"埼大通り店","address":"埼玉県さいたま市桜区下大久保７２０－１","latitude":35.8637416999,"longitude":139.602853064,"geo_location":[139.602853064,35.8637416999]}
{"index":{}}
{"name":"１６号深作店","address":"埼玉県さいたま市見沼区深作３－２７－７","latitude":35.9547477377,"longitude":139.662510957,"geo_location":[139.662510957,35.9547477377]}
{"index":{}}
{"name":"八潮店","address":"埼玉県八潮市柳之宮大道通３１５－２","latitude":35.8246206671,"longitude":139.824395781,"geo_location":[139.824395781,35.8246206671]}
{"index":{}}
{"name":"大宮大和田店","address":"埼玉県さいたま市見沼区大和田町１－７９０－１","latitude":35.9203296584,"longitude":139.651231927,"geo_location":[139.651231927,35.9203296584]}
{"index":{}}
{"name":"所沢山口店","address":"埼玉県所沢市山口１５１９－１","latitude":35.7783076984,"longitude":139.434693902,"geo_location":[139.434693902,35.7783076984]}
{"index":{}}
{"name":"１６号庄和町店","address":"埼玉県春日部市金崎６５２－３","latitude":35.9888015557,"longitude":139.802887044,"geo_location":[139.802887044,35.9888015557]}
{"index":{}}
{"name":"浦和曲本店","address":"埼玉県さいたま市南区曲本１－１９－１","latitude":35.8355675825,"longitude":139.631139012,"geo_location":[139.631139012,35.8355675825]}
{"index":{}}
{"name":"東武霞ヶ関店","address":"埼玉県川越市霞ヶ関東１－１－４","latitude":35.9257787307,"longitude":139.442283996,"geo_location":[139.442283996,35.9257787307]}
{"index":{}}
{"name":"浦和太田窪店","address":"埼玉県さいたま市南区太田窪４－１５－４","latitude":35.8597027144,"longitude":139.675577861,"geo_location":[139.675577861,35.8597027144]}
{"index":{}}
{"name":"大宮バイパス宮原店","address":"埼玉県さいたま市北区日進町３－４１６－１","latitude":35.9371316674,"longitude":139.600145883,"geo_location":[139.600145883,35.9371316674]}
{"index":{}}
{"name":"川越木野目店","address":"埼玉県川越市木野目３５３－１","latitude":35.8967487015,"longitude":139.515908875,"geo_location":[139.515908875,35.8967487015]}
{"index":{}}
{"name":"行田バイパス店","address":"埼玉県行田市大字小見１４５７－１","latitude":36.1573186293,"longitude":139.474222978,"geo_location":[139.474222978,36.1573186293]}
{"index":{}}
{"name":"吉川店","address":"埼玉県吉川市平沼１－２２－１０","latitude":35.8853807788,"longitude":139.845789828,"geo_location":[139.845789828,35.8853807788]}
{"index":{}}
{"name":"武蔵浦和店","address":"埼玉県さいたま市南区白幡５－１９－１９","latitude":35.8448097511,"longitude":139.647362812,"geo_location":[139.647362812,35.8448097511]}
{"index":{}}
{"name":"花園インター店","address":"埼玉県深谷市荒川１５４－２","latitude":36.1219086307,"longitude":139.240971103,"geo_location":[139.240971103,36.1219086307]}
{"index":{}}
{"name":"川越駅西口店","address":"埼玉県川越市脇田本町６－９","latitude":35.9062597788,"longitude":139.482098046,"geo_location":[139.482098046,35.9062597788]}
{"index":{}}
{"name":"獨協大学前駅店","address":"埼玉県草加市栄町２－１２－１","latitude":35.8433587648,"longitude":139.801238935,"geo_location":[139.801238935,35.8433587648]}
{"index":{}}
{"name":"ヤオコー狭山店","address":"埼玉県狭山市広瀬東２－４１－１","latitude":35.8582937199,"longitude":139.39517185,"geo_location":[139.39517185,35.8582937199]}
{"index":{}}
{"name":"イオンせんげん台店","address":"埼玉県越谷市千間台西３－２－１２","latitude":35.933531554,"longitude":139.766959025,"geo_location":[139.766959025,35.933531554]}
{"index":{}}
{"name":"新座西友店","address":"埼玉県新座市野火止８－１６－３","latitude":35.8024697126,"longitude":139.57102908,"geo_location":[139.57102908,35.8024697126]}
{"index":{}}
{"name":"春日部イトーヨーカドー店","address":"埼玉県春日部市中央１－１３－１","latitude":35.9797886389,"longitude":139.749633062,"geo_location":[139.749633062,35.9797886389]}
{"index":{}}
{"name":"２５４亀久保店","address":"埼玉県ふじみ野市鶴ヶ岡３－２－２５","latitude":35.8691495942,"longitude":139.505323947,"geo_location":[139.505323947,35.8691495942]}
{"index":{}}
{"name":"鶴ヶ島コモディイイダ店","address":"埼玉県鶴ヶ島市鶴ケ丘６５－１","latitude":35.9366708598,"longitude":139.422516914,"geo_location":[139.422516914,35.9366708598]}
{"index":{}}
{"name":"川越伊勢原いなげや店","address":"埼玉県川越市伊勢原町３－２","latitude":35.9223076125,"longitude":139.427294029,"geo_location":[139.427294029,35.9223076125]}
{"index":{}}
{"name":"東浦和駅前店","address":"埼玉県さいたま市緑区東浦和５－１－１","latitude":35.864255782,"longitude":139.705554845,"geo_location":[139.705554845,35.864255782]}
{"index":{}}
{"name":"１２５号栗橋店","address":"埼玉県久喜市高柳１７４１－１","latitude":36.1174426851,"longitude":139.673748083,"geo_location":[139.673748083,36.1174426851]}
{"index":{}}
{"name":"春日部東店","address":"埼玉県春日部市粕壁東２－７－２０","latitude":35.9811606773,"longitude":139.758878885,"geo_location":[139.758878885,35.9811606773]}
{"index":{}}
{"name":"谷塚ファイン店","address":"埼玉県草加市谷塚１－１－２３","latitude":35.8137745976,"longitude":139.801109867,"geo_location":[139.801109867,35.8137745976]}
{"index":{}}
{"name":"４６３亀ヶ谷店","address":"埼玉県所沢市大字亀ヶ谷字亀寿７８","latitude":35.8088318313,"longitude":139.521183908,"geo_location":[139.521183908,35.8088318313]}
{"index":{}}
{"name":"みずほ台西口店","address":"埼玉県富士見市西みずほ台２－１－１３","latitude":35.8375257812,"longitude":139.551224081,"geo_location":[139.551224081,35.8375257812]}
{"index":{}}
{"name":"イオン大宮西店","address":"埼玉県さいたま市西区三橋６－６０７－１３","latitude":35.9180077309,"longitude":139.590250002,"geo_location":[139.590250002,35.9180077309]}
{"index":{}}
{"name":"大宮ソニックシティ前店","address":"埼玉県さいたま市大宮区桜木町２－２－２１","latitude":35.9058516083,"longitude":139.621493939,"geo_location":[139.621493939,35.9058516083]}
{"index":{}}
{"name":"１２２西新井宿店","address":"埼玉県川口市大字西新井宿８９４－１","latitude":35.8470226583,"longitude":139.734053949,"geo_location":[139.734053949,35.8470226583]}
{"index":{}}
{"name":"吉川駅前店","address":"埼玉県吉川市木売２－３－９","latitude":35.8763636686,"longitude":139.843119866,"geo_location":[139.843119866,35.8763636686]}
{"index":{}}
{"name":"２５４川島店","address":"埼玉県比企郡川島町上伊草字菅田５２２－１","latitude":35.9696878237,"longitude":139.469577944,"geo_location":[139.469577944,35.9696878237]}
{"index":{}}
{"name":"白岡岡泉店","address":"埼玉県白岡市太田新井１１８１－１２","latitude":36.0072266637,"longitude":139.698631017,"geo_location":[139.698631017,36.0072266637]}
{"index":{}}
{"name":"２５４小川町店","address":"埼玉県比企郡小川町高谷１３８２－１","latitude":36.0704698154,"longitude":139.274791113,"geo_location":[139.274791113,36.0704698154]}
{"index":{}}
{"name":"コクーンシティ店","address":"埼玉県さいたま市大宮区吉敷町４－２６３－６","latitude":35.8954986547,"longitude":139.633478891,"geo_location":[139.633478891,35.8954986547]}
{"index":{}}
{"name":"西武新狭山駅前店","address":"埼玉県狭山市新狭山３－１２－１","latitude":35.8741807173,"longitude":139.433339894,"geo_location":[139.433339894,35.8741807173]}
{"index":{}}
{"name":"上尾駅西口店","address":"埼玉県上尾市谷津２－１２３－１７","latitude":35.9728167425,"longitude":139.587692999,"geo_location":[139.587692999,35.9728167425]}
{"index":{}}
{"name":"秩父公園橋ベルク店","address":"埼玉県秩父市中村町４－３－２４","latitude":36.0007388478,"longitude":139.076385128,"geo_location":[139.076385128,36.0007388478]}
{"index":{}}
{"name":"越谷ファイン店","address":"埼玉県越谷市弥生町４－４４","latitude":35.8887337883,"longitude":139.785899788,"geo_location":[139.785899788,35.8887337883]}
{"index":{}}
{"name":"４号線春日部店","address":"埼玉県春日部市備後東１－７－１３","latitude":35.9634416201,"longitude":139.771104954,"geo_location":[139.771104954,35.9634416201]}
{"index":{}}
{"name":"川越クレアモール店","address":"埼玉県川越市新富町２－４－３","latitude":35.9130287619,"longitude":139.483087966,"geo_location":[139.483087966,35.9130287619]}
{"index":{}}
{"name":"大宮カインズホーム店","address":"埼玉県さいたま市西区高木１４８０－２","latitude":35.9365747142,"longitude":139.576727905,"geo_location":[139.576727905,35.9365747142]}
{"index":{}}
{"name":"狭山ケ丘いなげや店","address":"埼玉県所沢市若狭１－２９３８－１","latitude":35.8044987799,"longitude":139.419476097,"geo_location":[139.419476097,35.8044987799]}
{"index":{}}
{"name":"東松山石橋店","address":"埼玉県東松山市大字石橋字女堀１６１１－３","latitude":36.0347867789,"longitude":139.384135958,"geo_location":[139.384135958,36.0347867789]}
{"index":{}}
{"name":"越谷南町店","address":"埼玉県越谷市南町２－１１－８","latitude":35.8579197618,"longitude":139.806424848,"geo_location":[139.806424848,35.8579197618]}
{"index":{}}
{"name":"所沢狭山街道入曽店","address":"埼玉県狭山市水野４３１－４","latitude":35.83114472,"longitude":139.432255881,"geo_location":[139.432255881,35.83114472]}
{"index":{}}
{"name":"１６号南大塚店","address":"埼玉県川越市南大塚２－１１－２８","latitude":35.8937777087,"longitude":139.455713859,"geo_location":[139.455713859,35.8937777087]}
{"index":{}}
{"name":"大宮東口店","address":"埼玉県さいたま市大宮区大門町１－２８－２","latitude":35.9062477829,"longitude":139.625533856,"geo_location":[139.625533856,35.9062477829]}
{"index":{}}
{"name":"上尾中妻与野フードセンター店","address":"埼玉県上尾市中妻３－１１－５","latitude":35.9841966569,"longitude":139.570354852,"geo_location":[139.570354852,35.9841966569]}
{"index":{}}
{"name":"朝霞台駅前店","address":"埼玉県朝霞市浜崎１－２－８","latitude":35.8149687463,"longitude":139.587683824,"geo_location":[139.587683824,35.8149687463]}
{"index":{}}
{"name":"上里町七本木ベルク店","address":"埼玉県児玉郡上里町七本木２５５８－１","latitude":36.2381936256,"longitude":139.163527213,"geo_location":[139.163527213,36.2381936256]}
{"index":{}}
{"name":"嵐山バイパスヤオコー店","address":"埼玉県比企郡嵐山町平沢３１－１","latitude":36.0425068453,"longitude":139.3153221,"geo_location":[139.3153221,36.0425068453]}
{"index":{}}
{"name":"１７号本庄店","address":"埼玉県本庄市寿３－４－１９","latitude":36.2339075674,"longitude":139.209683136,"geo_location":[139.209683136,36.2339075674]}
{"index":{}}
{"name":"蕨ヤオコー店","address":"埼玉県蕨市南町１－５－２","latitude":35.8227226707,"longitude":139.694413862,"geo_location":[139.694413862,35.8227226707]}
{"index":{}}
{"name":"草加遊馬町店","address":"埼玉県草加市遊馬町７２－１","latitude":35.8171098101,"longitude":139.771303934,"geo_location":[139.771303934,35.8171098101]}
{"index":{}}
{"name":"笹目通り和光店","address":"埼玉県和光市白子４－１－１","latitude":35.7928875994,"longitude":139.638624817,"geo_location":[139.638624817,35.7928875994]}
{"index":{}}
{"name":"春日部ＴＯＰ店","address":"埼玉県春日部市八丁目新田９７４－１","latitude":35.9908837408,"longitude":139.758722946,"geo_location":[139.758722946,35.9908837408]}
{"index":{}}
{"name":"草加松原サンベルクス店","address":"埼玉県草加市草加３－９－１３","latitude":35.8396646508,"longitude":139.798029914,"geo_location":[139.798029914,35.8396646508]}
{"index":{}}
{"name":"久喜駅前店","address":"埼玉県久喜市久喜中央１－１－３","latitude":36.0661296789,"longitude":139.676426064,"geo_location":[139.676426064,36.0661296789]}
{"index":{}}
{"name":"４０７鶴ヶ島店","address":"埼玉県鶴ヶ島市大字脚折万神ケ谷戸１１４１－４","latitude":35.9409187609,"longitude":139.393080928,"geo_location":[139.393080928,35.9409187609]}
{"index":{}}
{"name":"深谷駅前店","address":"埼玉県深谷市西島町２－１０－１","latitude":36.1921186943,"longitude":139.281976951,"geo_location":[139.281976951,36.1921186943]}
{"index":{}}
{"name":"志木東口店","address":"埼玉県志木市本町５－２５－８","latitude":35.8236116024,"longitude":139.575149823,"geo_location":[139.575149823,35.8236116024]}
{"index":{}}
{"name":"１７号吹上店","address":"埼玉県鴻巣市新宿２－１８０","latitude":36.1134226918,"longitude":139.44003492,"geo_location":[139.44003492,36.1134226918]}
{"index":{}}
{"name":"南与野マルエツ店","address":"埼玉県さいたま市中央区鈴谷２－５４８－２","latitude":35.8683958076,"longitude":139.630668838,"geo_location":[139.630668838,35.8683958076]}
{"index":{}}
{"name":"新座与野フードセンター店","address":"埼玉県新座市野火止５－２－６０","latitude":35.8032798349,"longitude":139.558220973,"geo_location":[139.558220973,35.8032798349]}
{"index":{}}
{"name":"上尾セキチュー店","address":"埼玉県上尾市須ケ谷１－２４０","latitude":36.0001165617,"longitude":139.602895036,"geo_location":[139.602895036,36.0001165617]}
{"index":{}}
{"name":"入間下藤沢ヤオコー店","address":"埼玉県入間市下藤沢字本山８８７－２","latitude":35.8155096433,"longitude":139.404713861,"geo_location":[139.404713861,35.8155096433]}
{"index":{}}
{"name":"上尾地頭方店","address":"埼玉県上尾市地頭方４０８－２","latitude":35.9524615745,"longitude":139.56806689,"geo_location":[139.56806689,35.9524615745]}
{"index":{}}
{"name":"４６３小手指ケ原店","address":"埼玉県所沢市北野２－２－１１","latitude":35.7973486395,"longitude":139.42560586,"geo_location":[139.42560586,35.7973486395]}
{"index":{}}
{"name":"高坂駅前店","address":"埼玉県東松山市元宿１－１４－３","latitude":36.0021808214,"longitude":139.397168105,"geo_location":[139.397168105,36.0021808214]}
{"index":{}}
{"name":"毛呂山店","address":"埼玉県入間郡毛呂山町大字川角字西原４－１","latitude":35.9475838004,"longitude":139.329026976,"geo_location":[139.329026976,35.9475838004]}
{"index":{}}
{"name":"坂戸千代田ヤオコー店","address":"埼玉県坂戸市千代田２－１０１－１","latitude":35.957179783,"longitude":139.406694107,"geo_location":[139.406694107,35.957179783]}
{"index":{}}
{"name":"２９９バイパス笹井店","address":"埼玉県狭山市大字笹井字八木２６７７－９","latitude":35.8464606433,"longitude":139.364949075,"geo_location":[139.364949075,35.8464606433]}
{"index":{}}
{"name":"所沢北原町店","address":"埼玉県所沢市北原町１３７３－２","latitude":35.8070637199,"longitude":139.480313022,"geo_location":[139.480313022,35.8070637199]}
{"index":{}}
{"name":"西武入間市駅店","address":"埼玉県入間市河原町２－１","latitude":35.8421276229,"longitude":139.389642971,"geo_location":[139.389642971,35.8421276229]}
{"index":{}}
{"name":"イオン大宮店","address":"埼玉県さいたま市北区櫛引町２－５７４－１","latitude":35.9233337656,"longitude":139.609870889,"geo_location":[139.609870889,35.9233337656]}
{"index":{}}
{"name":"松伏いなげや店","address":"埼玉県北葛飾郡松伏町松葉１－１２","latitude":35.9267426901,"longitude":139.821936841,"geo_location":[139.821936841,35.9267426901]}
{"index":{}}
{"name":"イオン熊谷店","address":"埼玉県熊谷市本石２－１３５","latitude":36.1458387569,"longitude":139.378584982,"geo_location":[139.378584982,36.1458387569]}
{"index":{}}
{"name":"狭山北入曽ヤオコー店","address":"埼玉県狭山市北入曽７２０－１","latitude":35.8463518006,"longitude":139.428893058,"geo_location":[139.428893058,35.8463518006]}
{"index":{}}
{"name":"桶川マルサン店","address":"埼玉県桶川市西２－９－３６","latitude":36.0074947995,"longitude":139.557974964,"geo_location":[139.557974964,36.0074947995]}
{"index":{}}
{"name":"大宮バイパス三橋店","address":"埼玉県さいたま市西区三橋５－１６４８－１","latitude":35.9073307659,"longitude":139.596282974,"geo_location":[139.596282974,35.9073307659]}
{"index":{}}
{"name":"鳩ケ谷駅前店","address":"埼玉県川口市坂下町１－１４－１９","latitude":35.8301346363,"longitude":139.736761902,"geo_location":[139.736761902,35.8301346363]}
{"index":{}}
{"name":"１２２羽生店","address":"埼玉県羽生市大字下川崎１６２－１","latitude":36.1423497292,"longitude":139.555343028,"geo_location":[139.555343028,36.1423497292]}
{"index":{}}
{"name":"せんげん台駅西口店","address":"埼玉県越谷市千間台西１－４－３","latitude":35.9353956791,"longitude":139.773235914,"geo_location":[139.773235914,35.9353956791]}
{"index":{}}
{"name":"北越谷東急ストア店","address":"埼玉県越谷市大澤３－６－１","latitude":35.9021696307,"longitude":139.780658855,"geo_location":[139.780658855,35.9021696307]}
{"index":{}}
{"name":"４号線越谷店","address":"埼玉県越谷市神明町２－８１－１","latitude":35.8947487536,"longitude":139.768539911,"geo_location":[139.768539911,35.8947487536]}
{"index":{}}
{"name":"新座ライフ店","address":"埼玉県新座市栗原４－１２－２５","latitude":35.7555608583,"longitude":139.550894069,"geo_location":[139.550894069,35.7555608583]}
{"index":{}}
{"name":"２５４三芳店","address":"埼玉県新座市中野２－２－３","latitude":35.8191567101,"longitude":139.54993493,"geo_location":[139.54993493,35.8191567101]}
{"index":{}}
{"name":"１６号古谷店","address":"埼玉県川越市大字古谷上９９１－１","latitude":35.9168487275,"longitude":139.518768097,"geo_location":[139.518768097,35.9168487275]}
{"index":{}}
{"name":"新座池田ベルク店","address":"埼玉県新座市池田４－５－１２","latitude":35.7696417986,"longitude":139.572823024,"geo_location":[139.572823024,35.7696417986]}
{"index":{}}
{"name":"川口前川モーリーファンタジー店","address":"埼玉県川口市前川１－１－１１","latitude":35.8344167095,"longitude":139.707785029,"geo_location":[139.707785029,35.8344167095]}
{"index":{}}
{"name":"川口差間店","address":"埼玉県川口市大字差間１８８－１","latitude":35.8648796252,"longitude":139.727179923,"geo_location":[139.727179923,35.8648796252]}
{"index":{}}
{"name":"所沢北原ヤオコー店","address":"埼玉県所沢市北原町１４１５－１","latitude":35.8096256776,"longitude":139.481247006,"geo_location":[139.481247006,35.8096256776]}
{"index":{}}
{"name":"ふじみ野駅前店","address":"埼玉県富士見市ふじみ野西１－２０－２第七マツモトビル","latitude":35.860586846,"longitude":139.522213961,"geo_location":[139.522213961,35.860586846]}
{"index":{}}
{"name":"１２５熊谷店","address":"埼玉県熊谷市佐谷田字飯塚１３８４","latitude":36.1358127969,"longitude":139.4247131,"geo_location":[139.4247131,36.1358127969]}
{"index":{}}
{"name":"イオン狭山店","address":"埼玉県狭山市上奥富１１２６－１","latitude":35.8675566941,"longitude":139.410599881,"geo_location":[139.410599881,35.8675566941]}
{"index":{}}
{"name":"ＪＲ戸田公園店","address":"埼玉県戸田市本町４－１５－１２","latitude":35.8081538567,"longitude":139.67732285,"geo_location":[139.67732285,35.8081538567]}
{"index":{}}
{"name":"北本石戸店","address":"埼玉県北本市石戸５－１７３－２","latitude":36.0204436118,"longitude":139.526902929,"geo_location":[139.526902929,36.0204436118]}
{"index":{}}
{"name":"熊谷ヤオコー店","address":"埼玉県熊谷市銀座２－１２３－１","latitude":36.138897732,"longitude":139.393881174,"geo_location":[139.393881174,36.138897732]}
{"index":{}}
{"name":"蕨錦町イトーヨーカドー店","address":"埼玉県蕨市錦町１－１２－１","latitude":35.8216326219,"longitude":139.677632002,"geo_location":[139.677632002,35.8216326219]}
{"index":{}}
{"name":"大宮宮原イトーヨーカドー店","address":"埼玉県さいたま市北区宮原町１－８５４－１","latitude":35.9330265792,"longitude":139.620994825,"geo_location":[139.620994825,35.9330265792]}
{"index":{}}
{"name":"イオンモール北戸田店","address":"埼玉県戸田市美女木東１－３－１","latitude":35.8269358086,"longitude":139.653001942,"geo_location":[139.653001942,35.8269358086]}
{"index":{}}
{"name":"三郷ピアラシティ店","address":"埼玉県三郷市ピアラシティ１－１－２００","latitude":35.8425716952,"longitude":139.855246874,"geo_location":[139.855246874,35.8425716952]}
{"index":{}}
{"name":"川口領家店","address":"埼玉県川口市領家３－５－３","latitude":35.7950796891,"longitude":139.746673031,"geo_location":[139.746673031,35.7950796891]}
{"index":{}}
{"name":"イオンモール浦和美園店","address":"埼玉県さいたま市緑区美園５－５０－１","latitude":35.8919597193,"longitude":139.730741022,"geo_location":[139.730741022,35.8919597193]}
{"index":{}}
{"name":"川口東口店","address":"埼玉県川口市栄町３－５－１","latitude":35.8030046982,"longitude":139.718172914,"geo_location":[139.718172914,35.8030046982]}
{"index":{}}
{"name":"戸塚安行店","address":"埼玉県川口市長蔵新田３２６－１","latitude":35.8593856663,"longitude":139.753210984,"geo_location":[139.753210984,35.8593856663]}
{"index":{}}
{"name":"２５４児玉店","address":"埼玉県本庄市児玉町吉田林３８４－１","latitude":36.1980926597,"longitude":139.133309221,"geo_location":[139.133309221,36.1980926597]}
{"index":{}}
{"name":"１６号指扇店","address":"埼玉県さいたま市西区宮前町７３３－１","latitude":35.9243087932,"longitude":139.583905011,"geo_location":[139.583905011,35.9243087932]}
{"index":{}}
{"name":"加須ビバモール店","address":"埼玉県加須市下高柳１－２９","latitude":36.1105317192,"longitude":139.608828918,"geo_location":[139.608828918,36.1105317192]}
{"index":{}}
{"name":"戸田市役所南通り店","address":"埼玉県戸田市上戸田１－１７－１","latitude":35.8165296124,"longitude":139.678594904,"geo_location":[139.678594904,35.8165296124]}
{"index":{}}
{"name":"４０７妻沼イール店","address":"埼玉県熊谷市弥藤吾１１２０－１","latitude":36.2099118177,"longitude":139.370411128,"geo_location":[139.370411128,36.2099118177]}
{"index":{}}
{"name":"イオンモール羽生店","address":"埼玉県羽生市川崎２－２８１－３","latitude":36.1426907564,"longitude":139.543332932,"geo_location":[139.543332932,36.1426907564]}
{"index":{}}
{"name":"ララガーデン春日部店","address":"埼玉県春日部市南１－１－１","latitude":35.9773176775,"longitude":139.755133805,"geo_location":[139.755133805,35.9773176775]}
{"index":{}}
{"name":"東越谷店","address":"埼玉県越谷市東越谷３－１７－５","latitude":35.896868752,"longitude":139.798030925,"geo_location":[139.798030925,35.896868752]}
{"index":{}}
{"name":"イオンレイクタウンＭＯＲＩ店","address":"埼玉県越谷市レイクタウン３－１－１イオンレイクタウンＭＯＲＩ３階Ｂ街区３３１９","latitude":35.8821417719,"longitude":139.827838987,"geo_location":[139.827838987,35.8821417719]}
{"index":{}}
{"name":"ララガーデン川口店","address":"埼玉県川口市宮町１８－９","latitude":35.8053016889,"longitude":139.698462832,"geo_location":[139.698462832,35.8053016889]}
{"index":{}}
{"name":"三郷三丁目店","address":"埼玉県三郷市三郷３－１２－３","latitude":35.8460217007,"longitude":139.880211834,"geo_location":[139.880211834,35.8460217007]}
{"index":{}}
{"name":"菖蒲モラージュ店","address":"埼玉県久喜市菖蒲町菖蒲６００５－１","latitude":36.0746106219,"longitude":139.612971975,"geo_location":[139.612971975,36.0746106219]}
{"index":{}}
{"name":"ららぽーと新三郷店","address":"埼玉県三郷市新三郷ららシティ３－１－１","latitude":35.8587735499,"longitude":139.868182894,"geo_location":[139.868182894,35.8587735499]}
{"index":{}}
{"name":"４号線草加西町店","address":"埼玉県草加市西町６０－１","latitude":35.8266676516,"longitude":139.793128913,"geo_location":[139.793128913,35.8266676516]}
{"index":{}}
{"name":"熊谷駅前店","address":"埼玉県熊谷市筑波２－１０２Ｓｊビルディング１・２階","latitude":36.140428819,"longitude":139.389095967,"geo_location":[139.389095967,36.140428819]}
{"index":{}}
{"name":"川口南町店","address":"埼玉県川口市南町２－７－１１","latitude":35.804806855,"longitude":139.702580002,"geo_location":[139.702580002,35.804806855]}
{"index":{}}
{"name":"４０７高坂店","address":"埼玉県東松山市あずま町２－８－２","latitude":36.0047847113,"longitude":139.408253995,"geo_location":[139.408253995,36.0047847113]}
{"index":{}}
{"name":"越谷レイクタウン店","address":"埼玉県越谷市レイクタウン２－１－１","latitude":35.8839476301,"longitude":139.815693836,"geo_location":[139.815693836,35.8839476301]}
{"index":{}}
{"name":"朝霞三原店","address":"埼玉県朝霞市三原１－１－１１","latitude":35.8068307627,"longitude":139.576782859,"geo_location":[139.576782859,35.8068307627]}
{"index":{}}
{"name":"４号線草加清門町店","address":"埼玉県草加市清門町２７０－１","latitude":35.8513146553,"longitude":139.785078877,"geo_location":[139.785078877,35.8513146553]}
{"index":{}}
{"name":"１４０秩父店","address":"埼玉県秩父市上野町４－３","latitude":35.9966468389,"longitude":139.087890136,"geo_location":[139.087890136,35.9966468389]}
{"index":{}}
{"name":"２９９バイパス飯能店","address":"埼玉県飯能市中山３３５－２","latitude":35.8614017051,"longitude":139.322132138,"geo_location":[139.322132138,35.8614017051]}
{"index":{}}
{"name":"八潮駅前店","address":"埼玉県八潮市大瀬１－１１－１３","latitude":35.8096487372,"longitude":139.844812986,"geo_location":[139.844812986,35.8096487372]}
{"index":{}}
{"name":"桶川下日出谷店","address":"埼玉県桶川市下日出谷西１－３３－７","latitude":35.9952666906,"longitude":139.54580289,"geo_location":[139.54580289,35.9952666906]}
{"index":{}}
{"name":"三郷中央店","address":"埼玉県三郷市中央３－１９－２","latitude":35.8284285932,"longitude":139.87683978,"geo_location":[139.87683978,35.8284285932]}
{"index":{}}
{"name":"イオン大井店","address":"埼玉県ふじみ野市ふじみ野１－２－１","latitude":35.8597528383,"longitude":139.514231898,"geo_location":[139.514231898,35.8597528383]}
{"index":{}}
{"name":"鷲宮アリオ店","address":"埼玉県久喜市久本寺字谷田７－１","latitude":36.078595627,"longitude":139.660891882,"geo_location":[139.660891882,36.078595627]}
{"index":{}}
{"name":"４号線幸手店","address":"埼玉県幸手市大字上高野２０２６－１","latitude":36.052513704,"longitude":139.717075927,"geo_location":[139.717075927,36.052513704]}
{"index":{}}
{"name":"２５４和光店","address":"埼玉県和光市本町２７－２１","latitude":35.7848486612,"longitude":139.602827912,"geo_location":[139.602827912,35.7848486612]}
{"index":{}}
{"name":"深谷上柴店","address":"埼玉県深谷市上柴町東５－７－５","latitude":36.1786047014,"longitude":139.303776183,"geo_location":[139.303776183,36.1786047014]}
{"index":{}}
{"name":"にっさい花みず木店","address":"埼玉県坂戸市にっさい花みず木３－２０－１","latitude":35.9691788217,"longitude":139.369507917,"geo_location":[139.369507917,35.9691788217]}
{"index":{}}
{"name":"１６号入間宮寺店","address":"埼玉県入間市宮寺２３２２－１１","latitude":35.8000757775,"longitude":139.371294001,"geo_location":[139.371294001,35.8000757775]}
{"index":{}}
{"name":"イオンモール春日部店","address":"埼玉県春日部市下柳４２０－１","latitude":35.9890805683,"longitude":139.78804302,"geo_location":[139.78804302,35.9890805683]}
{"index":{}}
{"name":"大宮本郷店","address":"埼玉県さいたま市北区本郷町８６０","latitude":35.9460126203,"longitude":139.621337047,"geo_location":[139.621337047,35.9460126203]}
{"index":{}}
{"name":"上尾アリオ店","address":"埼玉県上尾市大字壱丁目３６７","latitude":35.961390778,"longitude":139.565667844,"geo_location":[139.565667844,35.961390778]}
{"index":{}}
{"name":"１４０熊谷広瀬店","address":"埼玉県熊谷市広瀬１５５－１","latitude":36.1527677101,"longitude":139.358483092,"geo_location":[139.358483092,36.1527677101]}
{"index":{}}
{"name":"日高下鹿山店","address":"埼玉県日高市下鹿山１０－１","latitude":35.8983766129,"longitude":139.350654048,"geo_location":[139.350654048,35.8983766129]}
{"index":{}}
{"name":"４０７東松山店","address":"埼玉県東松山市新宿町１－１","latitude":36.0370687876,"longitude":139.417016937,"geo_location":[139.417016937,36.0370687876]}
{"index":{}}
{"name":"イオンモール与野店","address":"埼玉県さいたま市中央区本町西５－２－９イオンモール与野１Ｆ","latitude":35.8913636361,"longitude":139.615340883,"geo_location":[139.615340883,35.8913636361]}
{"index":{}}
{"name":"１７号籠原新堀店","address":"埼玉県熊谷市新堀８６１－１","latitude":36.1782277074,"longitude":139.331477152,"geo_location":[139.331477152,36.1782277074]}
{"index":{}}
{"name":"富士見ららぽーと店","address":"埼玉県富士見市山室１－１３１３","latitude":35.8578067676,"longitude":139.549127054,"geo_location":[139.549127054,35.8578067676]}
{"index":{}}
{"name":"イオンレイクタウンＫＡＺＥ店","address":"埼玉県越谷市レイクタウン４－２－２イオンレイクタウンＫＡＺＥ１階１１２区画","latitude":35.8783365784,"longitude":139.825337965,"geo_location":[139.825337965,35.8783365784]}
{"index":{}}
{"name":"川越上寺山店","address":"埼玉県川越市上寺山３８４－１","latitude":35.9305358276,"longitude":139.46816298,"geo_location":[139.46816298,35.9305358276]}
{"index":{}}
{"name":"久喜インター店","address":"埼玉県久喜市上早見１６９－１","latitude":36.0671135415,"longitude":139.658955017,"geo_location":[139.658955017,36.0671135415]}
{"index":{}}
{"name":"ミエルかわぐち店","address":"埼玉県川口市本町２－７－２５","latitude":35.8009226928,"longitude":139.727866895,"geo_location":[139.727866895,35.8009226928]}
{"index":{}}
{"name":"本八幡南口店","address":"千葉県市川市南八幡４－６－１","latitude":35.7203857121,"longitude":139.926621875,"geo_location":[139.926621875,35.7203857121]}
{"index":{}}
{"name":"千葉富士見町店","address":"千葉県千葉市中央区富士見町２－４－１４","latitude":35.6108506321,"longitude":140.116429678,"geo_location":[140.116429678,35.6108506321]}
{"index":{}}
{"name":"１４号幸町店","address":"千葉県千葉市美浜区幸町２－２４－１川島屋幸町ビル","latitude":35.619218606,"longitude":140.096719894,"geo_location":[140.096719894,35.619218606]}
{"index":{}}
{"name":"１４号幕張店","address":"千葉県千葉市花見川区幕張町１－７７８５－１","latitude":35.6624476207,"longitude":140.044464789,"geo_location":[140.044464789,35.6624476207]}
{"index":{}}
{"name":"柏店","address":"千葉県柏市柏１－２－３１","latitude":35.8610977471,"longitude":139.971710947,"geo_location":[139.971710947,35.8610977471]}
{"index":{}}
{"name":"京成船橋店","address":"千葉県船橋市本町１－５－３","latitude":35.7001195905,"longitude":139.98603988,"geo_location":[139.98603988,35.7001195905]}
{"index":{}}
{"name":"津田沼駅前店","address":"千葉県船橋市前原西２－１４－８津田沼パスタ１Ｆ","latitude":35.6918525657,"longitude":140.020745885,"geo_location":[140.020745885,35.6918525657]}
{"index":{}}
{"name":"６号新松戸店","address":"千葉県松戸市二ッ木１７８２－１","latitude":35.8171975819,"longitude":139.926365751,"geo_location":[139.926365751,35.8171975819]}
{"index":{}}
{"name":"浦安店","address":"千葉県浦安市北栄１－１５－１３","latitude":35.6655826532,"longitude":139.893447734,"geo_location":[139.893447734,35.6655826532]}
{"index":{}}
{"name":"１６号野田店","address":"千葉県野田市鶴奉１９","latitude":35.9583296937,"longitude":139.873957791,"geo_location":[139.873957791,35.9583296937]}
{"index":{}}
{"name":"１６号穴川店","address":"千葉県千葉市稲毛区園生町３７２－１","latitude":35.6498557363,"longitude":140.117876866,"geo_location":[140.117876866,35.6498557363]}
{"index":{}}
{"name":"１６号木更津店","address":"千葉県木更津市請西１－１８－３１","latitude":35.371841666,"longitude":139.932438688,"geo_location":[139.932438688,35.371841666]}
{"index":{}}
{"name":"行徳店","address":"千葉県市川市行徳駅前２－１－３０","latitude":35.6834075926,"longitude":139.914141927,"geo_location":[139.914141927,35.6834075926]}
{"index":{}}
{"name":"成田駅前店","address":"千葉県成田市花崎町８１６－２","latitude":35.7775725707,"longitude":140.315297757,"geo_location":[140.315297757,35.7775725707]}
{"index":{}}
{"name":"君津店","address":"千葉県君津市南子安８－２－３２","latitude":35.3295547896,"longitude":139.924074684,"geo_location":[139.924074684,35.3295547896]}
{"index":{}}
{"name":"茂原店","address":"千葉県茂原市茂原８５－１","latitude":35.42736774,"longitude":140.287244615,"geo_location":[140.287244615,35.42736774]}
{"index":{}}
{"name":"柏駅前通り店","address":"千葉県柏市柏１－５－２１","latitude":35.8610447228,"longitude":139.97264587,"geo_location":[139.97264587,35.8610447228]}
{"index":{}}
{"name":"１６号柏店","address":"千葉県柏市十余二２７６－３７","latitude":35.8823146316,"longitude":139.965482,"geo_location":[139.965482,35.8823146316]}
{"index":{}}
{"name":"南柏店","address":"千葉県柏市南柏２－９－１５","latitude":35.8472865981,"longitude":139.953809975,"geo_location":[139.953809975,35.8472865981]}
{"index":{}}
{"name":"四街道店","address":"千葉県四街道市四街道１－２－３","latitude":35.6629935834,"longitude":140.1648007,"geo_location":[140.1648007,35.6629935834]}
{"index":{}}
{"name":"５１号若松町店","address":"千葉県千葉市若葉区若松町２１２５－１","latitude":35.635128661,"longitude":140.164977926,"geo_location":[140.164977926,35.635128661]}
{"index":{}}
{"name":"幕張テクノガーデン店","address":"千葉県千葉市美浜区中瀬１－３","latitude":35.6508385906,"longitude":140.042357937,"geo_location":[140.042357937,35.6508385906]}
{"index":{}}
{"name":"二和向台店","address":"千葉県船橋市二和東６－２０－１","latitude":35.7556357771,"longitude":140.024732962,"geo_location":[140.024732962,35.7556357771]}
{"index":{}}
{"name":"イオン稲毛店","address":"千葉県千葉市稲毛区小仲台１－４－２０イオンＧＦ","latitude":35.636752712,"longitude":140.095371799,"geo_location":[140.095371799,35.636752712]}
{"index":{}}
{"name":"新浦安駅前店","address":"千葉県浦安市入船１－５－１","latitude":35.6494147193,"longitude":139.913044779,"geo_location":[139.913044779,35.6494147193]}
{"index":{}}
{"name":"１６号沼南店","address":"千葉県柏市大津ケ丘１－５７－３","latitude":35.840408728,"longitude":140.003980996,"geo_location":[140.003980996,35.840408728]}
{"index":{}}
{"name":"南流山店","address":"千葉県流山市鰭ケ崎１１－６","latitude":35.8401105848,"longitude":139.906849811,"geo_location":[139.906849811,35.8401105848]}
{"index":{}}
{"name":"佐原店","address":"千葉県香取市北２－１４－３","latitude":35.8994126467,"longitude":140.494076806,"geo_location":[140.494076806,35.8994126467]}
{"index":{}}
{"name":"大網店","address":"千葉県大網白里市みやこ野２－１－６","latitude":35.5202637136,"longitude":140.31744277,"geo_location":[140.31744277,35.5202637136]}
{"index":{}}
{"name":"平成通り市原店","address":"千葉県市原市五井東３－４８－４","latitude":35.516414718,"longitude":140.101685841,"geo_location":[140.101685841,35.516414718]}
{"index":{}}
{"name":"薬円台店","address":"千葉県船橋市薬円台５－２０－１１","latitude":35.7093536267,"longitude":140.040365737,"geo_location":[140.040365737,35.7093536267]}
{"index":{}}
{"name":"我孫子駅前店","address":"千葉県我孫子市本町２－２－７","latitude":35.8721017672,"longitude":140.012171785,"geo_location":[140.012171785,35.8721017672]}
{"index":{}}
{"name":"千葉東寺山店","address":"千葉県千葉市中央区東千葉３－１４－２０","latitude":35.6276326312,"longitude":140.126513702,"geo_location":[140.126513702,35.6276326312]}
{"index":{}}
{"name":"イオンモール富津店","address":"千葉県富津市青木１－５－１","latitude":35.3300268264,"longitude":139.84600487,"geo_location":[139.84600487,35.3300268264]}
{"index":{}}
{"name":"千葉都町店","address":"千葉県千葉市中央区都町２－３３－１０","latitude":35.6105936394,"longitude":140.144478707,"geo_location":[140.144478707,35.6105936394]}
{"index":{}}
{"name":"イオン鎌取店","address":"千葉県千葉市緑区おゆみ野３－１６ゆみーる鎌取店内","latitude":35.5617908427,"longitude":140.177680653,"geo_location":[140.177680653,35.5617908427]}
{"index":{}}
{"name":"五香店","address":"千葉県松戸市五香１－１１－１２","latitude":35.795272598,"longitude":139.969302997,"geo_location":[139.969302997,35.795272598]}
{"index":{}}
{"name":"茂原街道古市場店","address":"千葉県千葉市緑区古市場町６２０－１","latitude":35.5464947545,"longitude":140.14580285,"geo_location":[140.14580285,35.5464947545]}
{"index":{}}
{"name":"成田ニュータウン店","address":"千葉県成田市飯田町字西向野１４３－７","latitude":35.7683326139,"longitude":140.299133667,"geo_location":[140.299133667,35.7683326139]}
{"index":{}}
{"name":"鴨川店","address":"千葉県鴨川市横渚１１０１－２","latitude":35.1091338758,"longitude":140.101961752,"geo_location":[140.101961752,35.1091338758]}
{"index":{}}
{"name":"成田空港第２ターミナル店","address":"千葉県成田市古込字古込１－１成田空港第２旅客ターミナル","latitude":35.7740866194,"longitude":140.388411725,"geo_location":[140.388411725,35.7740866194]}
{"index":{}}
{"name":"３５６印西店","address":"千葉県印西市大森２５３１－１","latitude":35.8337716583,"longitude":140.146196708,"geo_location":[140.146196708,35.8337716583]}
{"index":{}}
{"name":"京成千葉中央店","address":"千葉県千葉市中央区富士見２－２３－９","latitude":35.6082107022,"longitude":140.118341845,"geo_location":[140.118341845,35.6082107022]}
{"index":{}}
{"name":"５１号酒々井店","address":"千葉県印旛郡酒々井町酒々井８８９－１６","latitude":35.7334566271,"longitude":140.271958778,"geo_location":[140.271958778,35.7334566271]}
{"index":{}}
{"name":"四街道大日店","address":"千葉県四街道市大日３１９－１","latitude":35.6727007619,"longitude":140.162406898,"geo_location":[140.162406898,35.6727007619]}
{"index":{}}
{"name":"市川コルトンプラザ店","address":"千葉県市川市鬼高１－１－１","latitude":35.7170926592,"longitude":139.933598917,"geo_location":[139.933598917,35.7170926592]}
{"index":{}}
{"name":"野田みずきいなげや店","address":"千葉県野田市みずき２－１２","latitude":35.9234647762,"longitude":139.885569893,"geo_location":[139.885569893,35.9234647762]}
{"index":{}}
{"name":"２９６富里店","address":"千葉県富里市七栄１３０－２５","latitude":35.7378506447,"longitude":140.315329657,"geo_location":[140.315329657,35.7378506447]}
{"index":{}}
{"name":"木更津マックスバリュー店","address":"千葉県木更津市太田４－１８","latitude":35.376496733,"longitude":139.944085853,"geo_location":[139.944085853,35.376496733]}
{"index":{}}
{"name":"西船橋駅前店","address":"千葉県船橋市西船４－２２－４","latitude":35.7084037586,"longitude":139.958783799,"geo_location":[139.958783799,35.7084037586]}
{"index":{}}
{"name":"北国分店","address":"千葉県市川市堀之内３－３０－１８","latitude":35.7643325873,"longitude":139.911745803,"geo_location":[139.911745803,35.7643325873]}
{"index":{}}
{"name":"北松戸店","address":"千葉県松戸市上本郷８８９－３","latitude":35.8002338217,"longitude":139.911756847,"geo_location":[139.911756847,35.8002338217]}
{"index":{}}
{"name":"銚子駅前店","address":"千葉県銚子市西芝町１３－１９","latitude":35.7305454823,"longitude":140.827881807,"geo_location":[140.827881807,35.7305454823]}
{"index":{}}
{"name":"４０９八街店","address":"千葉県八街市文違字文違野３０１－３４３３","latitude":35.6859366297,"longitude":140.310874653,"geo_location":[140.310874653,35.6859366297]}
{"index":{}}
{"name":"京成大久保店","address":"千葉県習志野市大久保１－２４－１","latitude":35.6864178071,"longitude":140.048268775,"geo_location":[140.048268775,35.6864178071]}
{"index":{}}
{"name":"２９６八千代パルル店","address":"千葉県八千代市大和田新田４１１","latitude":35.7238758249,"longitude":140.089689861,"geo_location":[140.089689861,35.7238758249]}
{"index":{}}
{"name":"新松戸コモディイイダ店","address":"千葉県松戸市新松戸５－１３４","latitude":35.8281697208,"longitude":139.907310813,"geo_location":[139.907310813,35.8281697208]}
{"index":{}}
